Name,Address,PhoneNumber,Latitude,Longitude,Monday,Tuesday,Wednesday,Thursday,Friday,Saturday,Sunday
바링고빈스,부산광역시 기장군 정관읍 정관덕산길 31,,35.3228694113866,129.183144355341,10:00 ~ 20:00,10:00 ~ 20:00,10:00 ~ 20:00,10:00 ~ 20:00,10:00 ~ 20:00,10:00 ~ 20:00,10:00 ~ 20:00
바리스타들의놀이터,부산광역시 사하구 윤공단로56번길 51,051 263 5726,35.0586851509572,128.969994750587,11:00 ~ 19:00,11:00 ~ 19:00,11:00 ~ 19:00,11:00 ~ 19:00,11:00 ~ 19:00,11:00 ~ 19:00,
투썸플레이스부산대정문점,부산광역시 금정구 금강로 260-2,,35.231314059577,129.085248017499,10:00 ~ 23:40,10:00 ~ 23:40,10:00 ~ 23:40,10:00 ~ 23:40,10:00 ~ 23:40,10:00 ~ 23:40,10:00 ~ 23:40
보나단헤어엔카페,부산광역시 금정구 금강로 361,,35.2402959450991,129.086227115795,10:30 ~ 20:00,10:30 ~ 20:00,10:30 ~ 20:00,10:30 ~ 20:00,10:30 ~ 21:00,10:30 ~ 21:00,
노스커피온천장역점,부산광역시 금정구 오시게로 22-1 (부곡동),070 88667460,35.2195745390392,129.086590927284,07:30 ~ 21:00,07:30 ~ 21:00,07:30 ~ 21:00,07:30 ~ 21:00,07:30 ~ 21:00,09:00 ~ 19:00,09:00 ~ 19:00
힐링펫,부산광역시 기장군 장안읍 고무로 4,051 727 8256,35.3480134320464,129.257109484443,11:00 ~ 21:00,11:00 ~ 21:00,11:00 ~ 21:00,,11:00 ~ 21:00,11:00 ~ 21:00,11:00 ~ 21:00
둥지,부산광역시 남구 문현금융로 1-1 (문현동,051 6355678,35.1429236461342,129.064846368421,10:00 ~ 22:00,10:00 ~ 22:00,10:00 ~ 22:00,10:00 ~ 22:00,10:00 ~ 22:00,10:00 ~ 22:00,10:00 ~ 22:00
부산커피(Busan coffee),부산광역시 금정구 장전온천천로 93,051 5837171,35.2332830669602,129.089051033235,09:00 ~ 21:00,09:00 ~ 21:00,09:00 ~ 21:00,09:00 ~ 21:00,09:00 ~ 21:00,10:00 ~ 18:00,10:00 ~ 18:00
투썸플레이스 장림점,부산광역시 사하구 장림로 222 (장림동),051 262 5061,35.0821841327866,128.973353121907,09:30 ~ 22:00,09:30 ~ 22:00,09:30 ~ 22:00,09:30 ~ 22:00,09:30 ~ 22:00,09:30 ~ 22:00,09:30 ~ 22:00
더벤티 정관점,부산광역시 기장군 정관읍 정관7로 3,051 728 0201,35.3223947457244,129.175946815029,08:00 ~ 22:00,08:00 ~ 22:00,08:00 ~ 22:00,08:00 ~ 22:00,08:00 ~ 22:00,08:00 ~ 22:00,08:00 ~ 22:00
빽다방부산정관동오점,부산광역시 기장군 정관읍 정관7로 17-3 (동오A타워105호),051 727 8033,35.3219599482759,129.17696802348,08:30 ~ 22:00,08:30 ~ 22:00,08:30 ~ 22:00,08:30 ~ 22:00,08:30 ~ 22:00,08:30 ~ 22:00,08:30 ~ 22:00
MW커피로스터즈,부산광역시 기장군 정관읍 정관로 501-13,051 728 2814,35.325778928044,129.171471125654,09:10 ~ 18:00,09:10 ~ 18:00,09:10 ~ 18:00,09:10 ~ 18:00,09:10 ~ 18:00,10:00 ~ 18:00,
이디야,부산광역시 기장군 기장읍 차성로288번길 50,051 721 0300,35.242893152384,129.216340815524,09:00 ~ 22:00,09:00 ~ 22:00,09:00 ~ 22:00,09:00 ~ 22:00,09:00 ~ 22:00,09:00 ~ 22:00,09:00 ~ 22:00
텐퍼센트커피 사하구청점,부산광역시 사하구 낙동대로398번길 6 (당리동),051 207 8558,35.1036568672993,128.975147128978,07:30 ~ 20:30,07:30 ~ 20:30,07:30 ~ 20:30,07:30 ~ 20:30,07:30 ~ 20:30,07:30 ~ 18:00,
퓨리티카페,부산광역시 기장군 기장읍 차성로 329,051 727 5787,35.2469322475679,129.213609265754,10:30 ~ 22:00,10:30 ~ 22:00,10:30 ~ 22:00,10:30 ~ 22:00,10:30 ~ 22:00,10:30 ~ 22:00,10:30 ~ 22:00
이디야 부산정관달산점,부산광역시 기장군 정관읍 달산2길 30,051 727 7873,35.3177419880504,129.18382643401,08:00 ~ 22:00,08:00 ~ 22:00,08:00 ~ 22:00,08:00 ~ 22:00,08:00 ~ 22:00,08:00 ~ 22:00,08:00 ~ 22:00
스타벅스 동부산DT,부산광역시 기장군 기장읍 기장해안로 56,051 723 3279,35.184089090691,129.210809152212,07:00 ~ 22:00,07:00 ~ 22:00,07:00 ~ 22:00,07:00 ~ 22:00,07:00 ~ 22:30,07:00 ~ 22:30,07:00 ~ 22:00
히즈빈스 부산정관점,부산광역시 기장군 정관읍 산막길 26-98,051 728 4633,35.3331309531781,129.172504898162,10:00 ~ 22:00,10:00 ~ 22:00,10:00 ~ 22:00,10:00 ~ 22:00,10:00 ~ 22:00,10:30 ~ 22:00,
웨이브온커피,부산광역시 기장군 장안읍 해맞이로 286,051 727 1660,35.3222715919296,129.269778502763,10:00 ~ 24:00,10:00 ~ 24:00,10:00 ~ 24:00,10:00 ~ 24:00,10:00 ~ 24:00,10:00 ~ 24:00,10:00 ~ 24:00
스타벅스부산대역점,부산광역시 금정구 장전로12번길 64,051 583 8609,35.2305082787738,129.088736491912,08:30 ~ 22:00,08:30 ~ 22:00,08:30 ~ 22:00,08:30 ~ 22:00,08:30 ~ 22:00,08:30 ~ 22:00,08:30 ~ 22:00
투썸플레이스 남산점,부산광역시 금정구 금샘로 399-1,051 583 2460,35.2586362702873,129.08381499601,09:00 ~ 23:00,09:00 ~ 23:00,09:00 ~ 23:00,09:00 ~ 23:00,09:00 ~ 23:00,09:00 ~ 23:00,09:00 ~ 23:00
이디야커피,부산광역시 금정구 중앙대로 2120,051 508 1109,35.2740052793085,129.09305577448,09:00 ~ 21:00,09:00 ~ 21:00,09:00 ~ 21:00,09:00 ~ 21:00,09:00 ~ 21:00,09:00 ~ 21:00,09:00 ~ 21:00
그곳엔,부산광역시 기장군 장안읍 장안로 317-1,051 728 5787,35.3672019453094,129.246921235173,16:30 ~ 24:00,16:30 ~ 24:00,16:30 ~ 24:00,16:30 ~ 24:00,16:30 ~ 24:00,16:30 ~ 24:00,
(주)브라운핸즈 부산광복점,부산광역시 중구 중앙대로 2,,35.0979848964696,129.036632251021,11:00 ~ 21:00,11:00 ~ 21:00,11:00 ~ 21:00,11:00 ~ 21:00,11:00 ~ 21:00,11:00 ~ 21:00,11:00 ~ 21:00
만랩커피 부산동래점,부산광역시 동래구 명륜로129번길 58,,35.2054326854452,129.078998806667,08:00 ~ 24:00,08:00 ~ 24:00,08:00 ~ 24:00,08:00 ~ 24:00,08:00 ~ 24:00,08:00 ~ 24:00,08:00 ~ 24:00
커피맘스,부산광역시 금정구 금샘로 403,051 582 4445,35.2590357650034,129.083876753613,,,,,,,
더윤커피,부산광역시 금정구 팔송로 17-1,051 518 2166,35.2720599578849,129.090567173681,07:00 ~ 21:00,07:00 ~ 21:00,07:00 ~ 21:00,07:00 ~ 21:00,07:00 ~ 21:00,07:00 ~ 21:00,07:00 ~ 21:00
하삼동커피,부산광역시 사하구 승학로 60 (당리동),,35.1050609171967,128.974770879259,08:00 ~ 22:00,08:00 ~ 22:00,08:00 ~ 22:00,08:00 ~ 22:00,08:00 ~ 22:00,09:00 ~ 22:00,09:00 ~ 22:00
이디야커피,부산광역시 사하구 동매로 23,,35.1037845190945,128.961082612203,09:00 ~ 22:50,09:00 ~ 22:50,09:00 ~ 22:50,09:00 ~ 22:50,09:00 ~ 22:50,,
이디야(부산다대포점),부산광역시 사하구 다대로 682,051 265 2055,35.0481822479164,128.966665836616,10:00 ~ 22:00,10:00 ~ 22:00,10:00 ~ 22:00,10:00 ~ 22:00,10:00 ~ 22:00,10:00 ~ 23:00 (주말 및 공휴일은 변경될 수 있음),10:00 ~ 23:00 (주말 및 공휴일은 변경될 수 있음)
하삼동커피 동아대점,부산광역시 사하구 낙동대로 548,,35.1129499886975,128.96448539438,08:00 ~ 22:00,08:00 ~ 22:00,08:00 ~ 22:00,08:00 ~ 22:00,08:00 ~ 22:00,09:00 ~ 22:00,09:00 ~ 22:00
이디야커피부산하단가락1단지점,부산광역시 사하구 하신번영로 320,051 202 9012,35.1093548025561,128.959113112534,09:00 ~ 22:00,09:00 ~ 22:00,09:00 ~ 22:00,09:00 ~ 22:00,09:00 ~ 22:00,09:00 ~ 22:00,09:00 ~ 22:00
쉐이드(SHADE),부산광역시 금정구 하마1길 9,,35.2797213958568,129.076108538122,10:00 ~ 23:00,10:00 ~ 23:00,10:00 ~ 23:00,10:00 ~ 23:00,10:00 ~ 23:00,10:00 ~ 23:00,10:00 ~ 23:00
봄네커피 디저트카페,부산광역시 사하구 낙동대로536번길 17,07087326553,35.1124008542332,128.965988307591,,12:00 ~ 23:30,12:00 ~ 23:30,12:00 ~ 23:30,12:00 ~ 23:30,12:00 ~ 23:30,12:00 ~ 23:00
장안감골,부산광역시 기장군 장안읍 상장안2길 6-7,051 727 4774,35.3695562007517,129.245179123419,10:00 ~ 21:00,10:00 ~ 21:00,10:00 ~ 21:00,10:00 ~ 21:00,10:00 ~ 21:00,10:00 ~ 21:00,10:00 ~ 21:00
은유재,부산광역시 기장군 장안읍 기룡2길 70-4,051 723 1710,35.3560229545362,129.245673567067,11:00 ~ 19:30,11:00 ~ 19:30,11:00 ~ 19:30,11:00 ~ 19:30,11:00 ~ 19:30,11:00 ~ 19:30,11:00 ~ 19:30
CAFE051정관점(카페051),부산광역시 기장군 정관읍 정관로 560,051 728 6869,35.3213484699308,129.175090089593,08:00 ~ 21:00,08:00 ~ 21:00,08:00 ~ 21:00,08:00 ~ 21:00,08:00 ~ 21:00,08:00 ~ 21:00,08:00 ~ 21:00
Cafe봉봉(카페봉봉),부산광역시 기장군 기장읍 차성로 234,070 40461101,35.23830265821,129.213520953935,10:00 ~ 19:00,10:00 ~ 19:00,10:00 ~ 19:00,10:00 ~ 19:00,10:00 ~ 19:00,10:00 ~ 19:00,
제이스커피,부산광역시 기장군 일광면 이천8길 132-20,051 714 0838,35.2772363526365,129.234331802065,11:00 ~ 22:00,11:00 ~ 22:00,11:00 ~ 22:00,11:00 ~ 22:00,11:00 ~ 22:00,11:00 ~ 22:00,11:00 ~ 22:00
투썸플레이스부산온천천점,부산광역시 동래구 온천천로 329 (수안동),,35.194247806873,129.089484194069,09:00 ~ 23:00,09:00 ~ 23:00,09:00 ~ 23:00,09:00 ~ 23:00,09:00 ~ 23:00,09:00 ~ 23:00,09:00 ~ 23:00
백카롱,부산광역시 동래구 명륜로 185,,35.2102521960289,129.082360493363,10:00 ~ 21:00,10:00 ~ 21:00,10:00 ~ 21:00,10:00 ~ 21:00,10:00 ~ 21:00,10:00 ~ 21:00,
더벤티 명장점,부산광역시 동래구 반송로 271 (명장동),,35.204210079927,129.100887176805,09:00 ~ 22:00,09:00 ~ 22:00,09:00 ~ 22:00,09:00 ~ 22:00,09:00 ~ 22:00,09:00 ~ 22:00,09:00 ~ 22:00
피오나커피,부산광역시 동래구 명륜로 34,,35.1971170378855,129.083510764876,10:00 ~ 21:00,10:00 ~ 21:00,10:00 ~ 21:00,10:00 ~ 21:00,10:00 ~ 21:00,10:00 ~ 22:00,10:00 ~ 22:00
컴포즈 안락SK점,부산광역시 동래구 명장로 129 (안락동),,35.2001123993888,129.11264882908,09:00 ~ 22:00,09:00 ~ 22:00,09:00 ~ 22:00,09:00 ~ 22:00,09:00 ~ 22:00,09:00 ~ 22:00,09:00 ~ 22:00
마스터베이커리,부산광역시 동래구 반송로 291,,35.2063535756832,129.101840748609,10:00 ~ 22:00,10:00 ~ 22:00,10:00 ~ 22:00,10:00 ~ 22:00,10:00 ~ 22:00,10:00 ~ 22:00,10:00 ~ 22:00
라운드어바웃커피,부산광역시 동래구 충렬대로 296 (낙민동),051 514 4080,35.1998256827351,129.091257202983,11:00 ~ 18:30,11:00 ~ 18:30,11:00 ~ 18:30,11:00 ~ 18:30,11:00 ~ 18:30,11:00 ~ 18:30,11:00 ~ 18:30
하삼동 커피(장전퀸즈점),부산광역시 금정구 부곡온천천로 190,051 977 9699,35.2423296835377,129.090547632939,07:00 ~ 24:00,07:00 ~ 24:00,07:00 ~ 24:00,07:00 ~ 24:00,07:00 ~ 24:00,07:30 ~ 24:00,07:30 ~ 24:00
투썸플레이스부산괴정점,부산광역시 사하구 낙동대로 219 (괴정동),051  2931500,35.0998197193453,128.992932986005,10:00 ~ 21:50,10:00 ~ 21:50,10:00 ~ 21:50,10:00 ~ 21:50,10:00 ~ 21:50,10:00 ~ 21:50,10:00 ~ 21:50
화이트 콩,부산광역시 사하구 낙동대로 360 (당리동),051 291 1506,35.1018336343678,128.978404136878,10:00 ~ 23:00,10:00 ~ 23:00,10:00 ~ 23:00,10:00 ~ 23:00,10:00 ~ 23:00,,14:00 ~ 23:00
스타벅스 하단중앙점,부산광역시 사하구 낙동남로 1411 (하단동),02 30151180,35.1064881843058,128.966043105523,07:00 ~ 23:00,07:00 ~ 23:00,07:00 ~ 23:00,07:00 ~ 23:00,07:00 ~ 23:00,07:00 ~ 23:00,07:00 ~ 23:00
일번지커피숖,부산광역시 사상구 사상로 478 (모라동),051 3024554,35.1871084998156,128.987604962326,09:00 ~ 21:00,09:00 ~ 21:00,09:00 ~ 21:00,09:00 ~ 21:00,09:00 ~ 21:00,09:00 ~ 22:00,09:00 ~ 22:00
스타벅스 사직구장점,부산광역시 동래구 사직북로 4,051 501 3351,35.1962690162664,129.061358966141,08:00 ~ 22:00,08:00 ~ 22:00,08:00 ~ 22:00,08:00 ~ 22:00,08:00 ~ 22:00,08:00 ~ 22:00,08:00 ~ 22:00
커피스토어 온천장점,부산광역시 동래구 금강공원로 22 (온천동),,35.2189427965023,129.082214115234,08:00 ~ 22:00,08:00 ~ 22:00,08:00 ~ 22:00,08:00 ~ 22:00,08:00 ~ 22:00,08:00 ~ 22:00,09:00 ~ 21:00
할리스 부산덕천점,부산광역시 북구 덕천1길 21 (덕천동),051 342 8835,35.2099605173999,129.006754271459,10:00 ~ 22:00,10:00 ~ 22:00,10:00 ~ 22:00,10:00 ~ 22:00,10:00 ~ 22:00,10:00 ~ 22:00,10:00 ~ 22:00
스타벅스 부산화명역점,부산광역시 북구 금곡대로285번길 5 (화명동,051 363 8639,35.2336730290072,129.013176739007,07:00 ~ 22:00,07:00 ~ 22:00,07:00 ~ 22:00,07:00 ~ 22:00,07:00 ~ 22:00,07:00 ~ 22:00,07:00 ~ 22:00
한스커피,부산광역시 북구 의성로95번길 5 (덕천동),051 333 7779,35.2122136070985,129.010810251137,10:00 ~ 23:00,10:00 ~ 23:00,10:00 ~ 23:00,10:00 ~ 23:00,10:00 ~ 23:00,10:00 ~ 23:00,10:00 ~ 23:00
설빙화명점,부산광역시 북구 화명신도시로 130 (화명동,051 361 3227,35.2355023583832,129.01131443216,10:30 ~ 22:30,10:30 ~ 22:30,10:30 ~ 22:30,10:30 ~ 22:30,10:30 ~ 22:30,10:30 ~ 22:30,10:30 ~ 22:30
컴포즈,부산광역시 북구 효열로 211 (금곡동,,35.2631694447934,129.018819078633,07:30 ~ 22:00,07:30 ~ 22:00,07:30 ~ 22:00,07:30 ~ 22:00,07:30 ~ 22:00,07:30 ~ 22:00,07:30 ~ 22:00
아마스빈,부산광역시 북구 금곡대로303번길 35,,35.2354623142481,129.011674144803,09:00 ~ 22:30,09:00 ~ 22:30,09:00 ~ 22:30,09:00 ~ 22:30,09:00 ~ 22:30,09:00 ~ 21:50,09:00 ~ 21:50
더벤티구남역점,부산광역시 북구 백양대로 1018 (구포동),070 47920894,35.1964832257522,128.994955503279,07:30 ~ 22:30,07:30 ~ 22:30,07:30 ~ 22:30,07:30 ~ 22:30,07:30 ~ 22:30,07:30 ~ 22:30,07:30 ~ 22:30
이디야구포사거리점,부산광역시 북구 백양대로 1065,051 315 2002,35.2002736620573,128.997248939108,10:00 ~ 22:00,10:00 ~ 22:00,10:00 ~ 22:00,10:00 ~ 22:00,10:00 ~ 22:00,10:00 ~ 22:00,10:00 ~ 22:00
투썸플레이스부산덕천점,부산광역시 북구 금곡대로 15,051 342 2383,35.2113063615181,129.004462200969,07:00 ~ 23:00,07:00 ~ 23:00,07:00 ~ 23:00,07:00 ~ 23:00,07:00 ~ 23:00,07:00 ~ 23:00,09:00 ~ 21:00
엔제리너스수정역점,부산광역시 북구 금곡대로 201 (화명동),,35.2268514737843,129.010734359901,08:00 ~ 24:00,08:00 ~ 24:00,08:00 ~ 24:00,08:00 ~ 24:00,08:00 ~ 24:00,08:00 ~ 24:00,08:00 ~ 24:00
이디야커피율리점,부산광역시 북구 학사로 295,051 3637566,35.2475827499522,129.012123330948,09:00 ~ 22:30,09:00 ~ 22:30,09:00 ~ 22:30,09:00 ~ 22:30,09:00 ~ 22:30,08:00 ~ 23:00 (설 연휴 정상영업),08:00 ~ 23:00 (설 연휴 정상영업)
이디야 부산과학기술대점,부산광역시 북구 시랑로132번길 73,051 3362627,35.1944078753791,129.006218546247,10:00 ~ 21:40,10:00 ~ 21:40,10:00 ~ 21:40,10:00 ~ 21:40,10:00 ~ 21:40,,10:00 ~ 21:40
더벤티 덕천점,부산광역시 북구 백양대로 1200 (덕천동),16614553,35.2093620985423,129.005821934833,08:00 ~ 23:00,08:00 ~ 23:00,08:00 ~ 23:00,08:00 ~ 23:00,08:00 ~ 23:00,08:00 ~ 23:00,08:00 ~ 23:00
이너프커피,부산광역시 북구 산성로47번길 7-6,,35.2411422564704,129.017906932517,,11:00 ~ 21:00,11:00 ~ 21:00,11:00 ~ 21:00,11:00 ~ 21:00,11:00 ~ 21:00,11:00 ~ 21:00
컴포즈커피화명점,부산광역시 북구 화명대로 27,,35.2352319196911,129.011254812893,07:30 ~ 21:00,07:30 ~ 21:00,07:30 ~ 21:00,07:30 ~ 21:00,07:30 ~ 21:00,08:00 ~ 21:00,08:00 ~ 21:00
파스쿠찌구포점,부산광역시 북구 낙동북로 720,051 338 1300,35.198003269737,129.000189943235,09:00 ~ 23:00,09:00 ~ 23:00,09:00 ~ 23:00,09:00 ~ 23:00,09:00 ~ 23:00,09:00 ~ 23:00,09:00 ~ 23:00
이디야커피,부산광역시 기장군 정관읍 정관로 702,051 728 7717,35.320958223103,129.18970982572,09:00 ~ 22:00,09:00 ~ 22:00,09:00 ~ 22:00,09:00 ~ 22:00,09:00 ~ 22:00,09:00 ~ 22:00,09:00 ~ 22:00
쓰담쓰담커피숍,부산광역시 기장군 기장읍 차성로288번길 65,051 722 3568,35.2431164137465,129.217267255009,11:30 ~ 21:30,11:30 ~ 21:30,11:30 ~ 21:30,11:30 ~ 21:30,11:30 ~ 21:30,11:30 ~ 21:30,11:30 ~ 21:30
커피베이 부산사직점,부산광역시 동래구 아시아드대로146번길 4,,35.1974363707432,129.065968419197,09:00 ~ 22:00,09:00 ~ 22:00,09:00 ~ 22:00,09:00 ~ 22:00,09:00 ~ 22:00,09:00 ~ 22:00,09:00 ~ 22:00
만랩커피 부산기장점,부산광역시 기장군 기장읍 차성동로 71,051 723 1211,35.2440747408447,129.216456682156,09:00 ~ 21:00,09:00 ~ 21:00,09:00 ~ 21:00,09:00 ~ 21:00,09:00 ~ 21:00,09:00 ~ 21:00,09:00 ~ 21:00
커피스미스 정관점,부산광역시 기장군 정관읍 정관6로 31,051 704 0142,35.3196973562916,129.177451804668,08:00 ~ 23:00,08:00 ~ 23:00,08:00 ~ 23:00,08:00 ~ 23:00,08:00 ~ 23:00,08:00 ~ 23:00,08:00 ~ 23:00
팔공티 정관광장점,부산광역시 기장군 정관읍 정관로 563,051 728 3373,35.3219150269183,129.175634454968,10:00 ~ 22:00,10:00 ~ 22:00,10:00 ~ 22:00,10:00 ~ 22:00,10:00 ~ 22:00,10:00 ~ 22:00,10:00 ~ 22:00
텐퍼센트 냉정동서대점,부산광역시 사상구 가야대로366번길 19 (주례동),070 47911001,35.150215042913,129.012827347925,08:00 ~ 21:00,08:00 ~ 21:00,08:00 ~ 21:00,08:00 ~ 21:00,08:00 ~ 21:00,10:30 ~ 21:30,10:30 ~ 21:30
스타벅스 수영망미DT점,부산광역시 수영구 과정로 68,051 757 2209,35.1773899390167,129.107494570004,07:00 ~ 23:00,07:00 ~ 23:00,07:00 ~ 23:00,07:00 ~ 23:00,07:00 ~ 23:00,07:00 ~ 23:00,07:00 ~ 23:00
모토커피,부산광역시 수영구 과정로 16,051 753 7536,35.1729618917354,129.109024951421,10:00 ~ 22:00,10:00 ~ 22:00,10:00 ~ 22:00,10:00 ~ 22:00,10:00 ~ 22:00,10:00 ~ 22:00,11:00 ~ 22:00
컴포즈커피 남천점,부산광역시 수영구 남천동로 36,051 611 7412,35.141195699551,129.111669104187,08:00 ~ 22:00,08:00 ~ 22:00,08:00 ~ 22:00,08:00 ~ 22:00,08:00 ~ 22:00,08:00 ~ 22:00,08:00 ~ 22:00
카페미마,부산광역시 남구 수영로334번길 47-2 (대연동),051 612 9779,35.1364332595161,129.103688997398,11:00 ~ 23:30,11:00 ~ 23:30,11:00 ~ 23:30,11:00 ~ 23:30,11:00 ~ 23:30,11:00 ~ 23:30,12:00 ~ 23:00
이디야,부산광역시 북구 금곡대로 166,051 361 1696,35.2263603201003,129.012210130511,09:00 ~ 22:00,09:00 ~ 22:00,09:00 ~ 22:00,09:00 ~ 22:00,09:00 ~ 22:00,09:00 ~ 22:00,10:00 ~ 22:00
투썸플레이스 부산사상점,부산광역시 사상구 사상로 213,051 3171199,35.1641485521417,128.983468109248,09:00 ~ 23:30,09:00 ~ 23:30,09:00 ~ 23:30,09:00 ~ 23:30,09:00 ~ 23:30,09:00 ~ 23:30,09:00 ~ 23:30
텐퍼센트커피 남구청점,부산광역시 남구 못골로41번길 13,051 638 1544,35.1358161193851,129.086334064016,07:30 ~ 22:00,07:30 ~ 22:00,07:30 ~ 22:00,07:30 ~ 22:00,07:30 ~ 22:00,09:00 ~ 21:00,09:00 ~ 21:00
할리스 부산경성대점,부산광역시 남구 용소로 7,051 611 6893,35.1366740247463,129.100631797365,09:00 ~ 24:00,09:00 ~ 24:00,09:00 ~ 24:00,09:00 ~ 24:00,09:00 ~ 01:00,09:00 ~ 01:00,09:00 ~ 24:00
더벤티 경성대부경대점,부산광역시 남구 수영로 312 (대연동,051 610 0224,35.1369795296869,129.100620669986,08:30 ~ 23:00,08:30 ~ 23:00,08:30 ~ 23:00,08:30 ~ 23:00,08:30 ~ 23:00,10:30 ~ 23:00,10:30 ~ 23:00
미엘(Miel),부산광역시 남구 못골로 97-5 (대연동),,35.1359191097574,129.092943163705,08:30 ~ 18:00,08:30 ~ 18:00,08:30 ~ 18:00,08:30 ~ 18:00,08:30 ~ 18:00,,
이디야,부산광역시 남구 수영로358번길 12,,35.138837735179,129.104803707388,10:00 ~ 23:30,10:00 ~ 23:30,10:00 ~ 23:30,10:00 ~ 23:30,10:00 ~ 23:30,10:00 ~ 22:30,10:00 ~ 22:30
스타벅스 부산대연역점,부산광역시 남구 수영로 240-1 (대연동),051 621 5676,35.1349262076708,129.093042579996,08:00 ~ 22:00,07:00 ~ 22:00,07:00 ~ 22:00,07:00 ~ 22:00,07:00 ~ 22:00,07:00 ~ 22:00,08:00 ~ 22:00
더벤티 용호점,부산광역시 남구 동명로 133 (용호동),051 621 8780,35.1198725494941,129.111566052449,08:00 ~ 24:00,08:00 ~ 24:00,08:00 ~ 24:00,08:00 ~ 24:00,08:00 ~ 24:00,09:00 ~ 24:00,09:00 ~ 24:00
아마스빈,부산광역시 남구 용소로21번길 31,,35.1356210727693,129.102488498184,09:00 ~ 22:30,09:00 ~ 22:30,09:00 ~ 22:30,09:00 ~ 22:30,09:00 ~ 22:30,09:00 ~ 22:30,09:00 ~ 22:30
투썸플레이스 대연점,부산광역시 남구 수영로 286 (대연동,051 628 2338,35.1359500298896,129.097673124098,08:00 ~ 23:00,08:00 ~ 23:00,08:00 ~ 23:00,08:00 ~ 23:00,08:00 ~ 23:00,08:00 ~ 23:00,10:00 ~ 23:00
투썸플레이스,부산광역시 남구 전포대로 26,051633 2388,35.1393056365984,129.067990610961,08:00 ~ 23:30,08:00 ~ 23:30,08:00 ~ 23:30,08:00 ~ 23:30,08:00 ~ 23:30,08:00 ~ 23:30,08:00 ~ 23:30
이디야덕천중앙점,부산광역시 북구 덕천2길 11,051 3432231,35.2090971606231,129.005886896622,09:00 ~ 23:00,09:00 ~ 23:00,09:00 ~ 23:00,09:00 ~ 23:00,09:00 ~ 23:00,09:00 ~ 23:00,09:00 ~ 23:00
감내까페,부산광역시 사하구 감내2로 177 (감천동),07041255557,35.0985460214001,129.010158134187,09:30 ~ 17:00,,09:30 ~ 17:00,,09:30 ~ 17:00,09:30 ~ 17:00,09:30 ~ 17:00
달달,부산광역시 남구 고동골로 68,,35.1431456547075,129.07132477891,09:00 ~ 19:00,09:00 ~ 19:00,09:00 ~ 19:00,09:00 ~ 19:00,09:00 ~ 19:00,09:00 ~ 19:00,
오빠다방,부산광역시 남구 수영로334번길 48,,35.1364520812841,129.103399104509,08:00 ~ 23:00,08:00 ~ 23:00,08:00 ~ 23:00,08:00 ~ 23:00,08:00 ~ 23:00,11:00 ~ 22:00,11:00 ~ 22:00
디저트퐁당,부산광역시 남구 용소로21번길 37,,35.1356553532177,129.102823853552,,12:00 ~ 19:00,12:00 ~ 19:00,12:00 ~ 19:00,12:00 ~ 19:00,12:00 ~ 22:00,12:00 ~ 22:00
아지트 B43,부산광역시 남구 백운포로 43,,35.1035829305913,129.112973221813,10:00 ~ 22:30,10:00 ~ 22:30,10:00 ~ 22:30,10:00 ~ 22:30,10:00 ~ 22:30,10:00 ~ 22:30,10:00 ~ 22:30
코코라임(koko Lime),부산광역시 남구 조각공원로 29 (대연동),051 624 1118,35.1297437008798,129.101160255339,09:00 ~ 22:30,09:00 ~ 22:30,09:00 ~ 22:30,09:00 ~ 22:30,09:00 ~ 22:30,09:00 ~ 22:30,09:00 ~ 19:00
담아까페,부산광역시 남구 용호로 154 (용호동),051 714 1373,35.118550369701,129.111519636671,10:00 ~ 20:00,10:00 ~ 20:00,10:00 ~ 20:00,10:00 ~ 20:00,10:00 ~ 20:00,10:00 ~ 20:00,10:00 ~ 20:00
스타벅스 BIFC몰점,부산광역시 남구 문현금융로 40,051633 8916,35.1464917263976,129.065854840531,09:00 ~ 17:00,07:00 ~ 21:00,07:00 ~ 21:00,07:00 ~ 21:00,07:00 ~ 21:00,09:00 ~ 19:00,09:00 ~ 17:00
부산 경성대점 빽다방,부산광역시 남구 수영로298번길 9,,35.1364149584726,129.099154494253,10:00 ~ 21:00,10:00 ~ 21:00,10:00 ~ 21:00,10:00 ~ 21:00,10:00 ~ 21:00,10:00 ~ 21:00,10:00 ~ 21:00
커피스토어 문현점,부산광역시 남구 수영로 25,,35.137214728672,129.070571994578,08:00 ~ 22:30,08:00 ~ 22:30,08:00 ~ 22:30,08:00 ~ 22:30,08:00 ~ 22:30,10:00 ~ 21:30,10:00 ~ 21:30
컴포즈커피 용호메트로점,부산광역시 남구 분포로 115,051 6223800,35.1321898048688,129.112724828547,08:00 ~ 22:00,08:00 ~ 22:00,08:00 ~ 22:00,08:00 ~ 22:00,08:00 ~ 22:00,08:00 ~ 22:00,08:00 ~ 22:00
카페토모,부산광역시 남구 유엔평화로41번길 107 (대연동),,35.1312826365566,129.098012874187,08:30 ~ 02:00,08:30 ~ 02:00,08:30 ~ 02:00,08:30 ~ 02:00,08:30 ~ 02:00,10:00 ~ 02:00,10:00 ~ 02:00
이디야문현동점,부산광역시 남구 수영로 46,,35.1363034415569,129.07230763945,08:00 ~ 23:15,08:00 ~ 23:15,08:00 ~ 23:15,08:00 ~ 23:15,08:00 ~ 23:15,09:00 ~ 23:15,09:00 ~ 23:15
커피레몬,부산광역시 동래구 충렬대로137번길 10,,35.2058850654462,129.075853856681,08:00 ~ 24:00,08:00 ~ 24:00,08:00 ~ 24:00,08:00 ~ 24:00,08:00 ~ 24:00,08:00 ~ 24:00,08:00 ~ 24:00
놀숲 부산사직점,부산광역시 동래구 사직북로 3,,35.1961809845821,129.06067554459,11:00 ~ 21:00,11:00 ~ 21:00,11:00 ~ 21:00,11:00 ~ 21:00,11:00 ~ 21:00,11:00 ~ 21:00,11:00 ~ 21:00
스타벅스 남천점,부산광역시 수영구 남천바다로 38,051 621 9234,35.1483051929022,129.114178373549,08:00 ~ 22:00,08:00 ~ 22:00,08:00 ~ 22:00,08:00 ~ 22:00,08:00 ~ 22:00,08:00 ~ 22:00,08:00 ~ 22:00
카페플로스(Cafe flos),부산광역시 수영구 수영로 405 (남천동),,35.1424949989483,129.108062328919,12:00 ~ 19:00,12:00 ~ 18:00,12:00 ~ 19:00,12:00 ~ 18:00,12:00 ~ 19:00,12:00 ~ 19:00,
에코토피아,부산광역시 수영구 수영로408번길 30-6,051 628 2802,35.1414781223599,129.109512428713,,11:00 ~ 19:00,11:00 ~ 19:00,11:00 ~ 19:00,11:00 ~ 19:00,11:00 ~ 19:00,10:00 ~ 15:00
짱 오락실,부산광역시 수영구 광안해변로278번길 42 (민락동),051 756 5002,35.1539704411162,129.124515022228,11:00 ~ 23:00,11:00 ~ 23:00,11:00 ~ 23:00,11:00 ~ 23:00,11:00 ~ 23:00,11:00 ~ 23:00,11:00 ~ 23:00
이디야 남천동점,부산광역시 수영구 황령대로489번길 11,051 622 2010,35.1388878644895,129.107745935784,10:00 ~ 24:00,10:00 ~ 24:00,10:00 ~ 24:00,10:00 ~ 24:00,10:00 ~ 24:00,10:00 ~ 24:00,10:00 ~ 24:00
더벤티,부산광역시 남구 수영로 264 (대연동),051 611 1014,35.1353644737294,129.095563501318,08:30 ~ 23:00,08:30 ~ 23:00,08:30 ~ 23:00,08:30 ~ 23:00,08:30 ~ 23:00,10:30 ~ 23:00,10:30 ~ 23:00
메가커피 경성대점,부산광역시 남구 용소로14번길 23 (대연동),07042326214,35.1354708335662,129.099533065775,09:30 ~ 23:00,09:30 ~ 23:00,09:30 ~ 23:00,09:30 ~ 23:00,09:30 ~ 23:00,09:30 ~ 23:00,09:30 ~ 23:00
서비커피,부산광역시 남구 수영로219번길 45 (대연동),,35.1371478246628,129.090136091199,10:00 ~ 20:00,07:00 ~ 20:00,07:00 ~ 20:00,07:00 ~ 20:00,10:00 ~ 20:00,,
공차 광안리점,부산광역시 수영구 광안해변로 233,,35.1544892110379,129.119646001213,09:00 ~ 22:00,09:00 ~ 22:00,09:00 ~ 22:00,09:00 ~ 22:00,09:00 ~ 22:00,09:00 ~ 22:00,09:00 ~ 22:00
미니 베이글 하우스,부산광역시 수영구 수영로594번길 28,,35.1584790150096,129.114921866658,07:00 ~ 19:00,,07:00 ~ 19:00,07:00 ~ 19:00,07:00 ~ 19:00,07:00 ~ 19:00,07:00 ~ 19:00
텐퍼센트커피 수영현대점,부산광역시 수영구 구락로10번길 23,051 757 6490,35.1690138649582,129.120957821994,08:00 ~ 21:00,08:00 ~ 21:00,08:00 ~ 21:00,08:00 ~ 21:00,08:00 ~ 21:00,08:00 ~ 21:00,08:00 ~ 21:00
설빙 민락점,부산광역시 수영구 광안해변로278번길 42 (민락동),051 7562288,35.1539704411162,129.124515022228,10:30 ~ 01:30,10:30 ~ 01:30,10:30 ~ 01:30,10:30 ~ 01:30,10:30 ~ 01:30,10:30 ~ 01:30,10:30 ~ 01:30
이디야,부산광역시 수영구 수영로 706 (광안동),051 758 6386,35.1676003938325,129.116596828331,09:00 ~ 24:00,09:00 ~ 24:00,09:00 ~ 24:00,09:00 ~ 24:00,09:00 ~ 24:00,09:00 ~ 24:00,09:00 ~ 24:00
스타벅스광안리점,부산광역시 수영구 광안해변로 247,051 7611844,35.1550454256744,129.120843929214,08:00 ~ 22:00,08:00 ~ 22:00,08:00 ~ 22:00,08:00 ~ 22:00,08:00 ~ 23:00,08:00 ~ 23:00,08:00 ~ 22:00
이디야커피 대연평화점,부산광역시 남구 유엔평화로 31 (대연동),,35.1321724038429,129.092210355558,09:00 ~ 24:00,09:00 ~ 24:00,09:00 ~ 24:00,09:00 ~ 24:00,09:00 ~ 24:00,09:00 ~ 24:00,09:00 ~ 24:00
아름다운,부산광역시 남구 용소로7번길 42 (대연동),051 6279331,35.1375159317608,129.102483481885,11:30 ~ 23:00,11:30 ~ 23:00,11:30 ~ 23:00,11:30 ~ 23:00,11:30 ~ 23:00,11:30 ~ 23:00,11:30 ~ 23:00
테라로사커피팩토리1963 수영점,부산광역시 수영구 구락로123번길 20,033 648 2760,35.1762247106672,129.11555773067,09:00 ~ 21:00,09:00 ~ 21:00,09:00 ~ 21:00,09:00 ~ 21:00,09:00 ~ 21:00,09:00 ~ 21:00,09:00 ~ 21:00
요거프레소 광안점,부산광역시 수영구 광안로 4,051 761 0040,35.156929476432,129.113373755268,12:00 ~ 23:00,12:00 ~ 23:00,12:00 ~ 23:00,12:00 ~ 23:00,12:00 ~ 23:00,12:00 ~ 23:00,12:00 ~ 23:00
이커피(E-COFFEE),부산광역시 수영구 민락수변로 141,051 759 8497,35.1564740570553,129.134623543254,06:30 ~ 19:00,06:30 ~ 19:00,06:30 ~ 19:00,06:30 ~ 19:00,06:30 ~ 19:00,06:30 ~ 17:00,06:30 ~ 17:00
컴포즈커피 광안점,부산광역시 수영구 남천동로108번길 34,,35.1464780291765,129.112938179913,10:00 ~ 01:00,10:00 ~ 01:00,10:00 ~ 01:00,10:00 ~ 01:00,10:00 ~ 01:00,10:00 ~ 01:00,10:00 ~ 01:00
컴포즈커피,부산광역시 수영구 수영로 706-1,,35.1676779190525,129.116791216123,08:00 ~ 23:00,08:00 ~ 23:00,08:00 ~ 23:00,08:00 ~ 23:00,08:00 ~ 23:00,09:00 ~ 23:00,09:00 ~ 23:00
아라커피,부산광역시 수영구 광안해변로 311,,35.1573315862525,129.127433756525,,09:30 ~ 20:00,09:30 ~ 20:00,09:30 ~ 20:00,09:30 ~ 20:00,09:00 ~ 20:00,09:30 ~ 20:00
이디야,부산광역시 수영구 광남로 16,070 88390014,35.1441925811142,129.110159027551,09:00 ~ 22:30,09:00 ~ 22:30,09:00 ~ 22:30,09:00 ~ 22:30,09:00 ~ 22:30,10:00 ~ 22:30,10:00 ~ 22:30
엔젤리너스르네상스점,부산광역시 사상구 광장로 60 (괘법동),051 3128581,35.1617515556607,128.982992343056,07:30 ~ 23:00,07:30 ~ 23:00,07:30 ~ 23:00,07:30 ~ 23:00,07:30 ~ 23:00,07:30 ~ 23:00,07:30 ~ 23:00
빈빈,부산광역시 수영구 남천서로 20,,35.1436300186397,129.107056712072,09:30 ~ 18:00,09:30 ~ 18:00,09:30 ~ 18:00,09:30 ~ 18:00,09:30 ~ 18:00,,
와플대학 부산남천 캠퍼스,부산광역시 수영구 수영로464번길 24,,35.1468902540787,129.111504669531,10:00 ~ 22:00,10:00 ~ 22:00,10:00 ~ 22:00,10:00 ~ 22:00,10:00 ~ 22:00,10:00 ~ 22:00,10:00 ~ 22:00
남천카페,부산광역시 수영구 남천동로19번길 23,051 623 7200,35.1432130327556,129.110691387409,09:00 ~ 21:00,09:00 ~ 21:00,09:00 ~ 21:00,09:00 ~ 21:00,09:00 ~ 21:00,11:00 ~ 21:00,09:00 ~ 21:00
이디야커피 부산롯데캐슬레전드점,부산광역시 남구 진남로 118,051 628 1877,35.1384114925542,129.082299477276,09:00 ~ 22:00,09:00 ~ 22:00,09:00 ~ 22:00,09:00 ~ 22:00,09:00 ~ 22:00,,
양커피 용호 힐탑점,부산광역시 남구 분포로 115,055 387 1971,35.1321898048688,129.112724828547,07:00 ~ 23:00,07:00 ~ 23:00,07:00 ~ 23:00,07:00 ~ 23:00,07:00 ~ 23:00,07:00 ~ 23:00,07:00 ~ 23:00
메가엠지씨커피 부산대연점,부산광역시 남구 수영로 262,,35.1353308676929,129.095359915706,08:00 ~ 23:30,08:00 ~ 23:30,08:00 ~ 23:30,08:00 ~ 23:30,08:00 ~ 23:30,09:00 ~ 23:30,10:00 ~ 23:30
이디야커피 부산유엔평화기념관점,부산광역시 남구 홍곡로320번길 106,,35.1247524714423,129.093256879368,,10:30 ~ 16:00,10:30 ~ 17:00,10:30 ~ 16:00,10:30 ~ 17:00,10:30 ~ 17:30,10:30 ~ 17:30
카페드림 동명대학교점,부산광역시 남구 신선로 428,,35.1246904251562,129.101380307339,10:00 ~ 22:00,10:00 ~ 22:00,10:00 ~ 22:00,10:00 ~ 22:00,10:00 ~ 22:00,10:00 ~ 22:00,
컴포즈커피 남천해변시장점,부산광역시 수영구 황령대로489번길 27 (남천동),051 612 5596,35.1394057446341,129.108461289006,09:00 ~ 21:00,09:00 ~ 21:00,09:00 ~ 21:00,09:00 ~ 21:00,09:00 ~ 21:00,09:00 ~ 21:00,09:00 ~ 21:00
프리젠트,부산광역시 수영구 황령산로 31,070 78635066,35.1484121709195,129.107600789625,10:00 ~ 21:30,10:00 ~ 21:30,10:00 ~ 21:30,10:00 ~ 21:30,10:00 ~ 21:30,10:00 ~ 21:30,10:00 ~ 21:30
스타벅스 광안비치점,부산광역시 수영구 광안로62번길 39,051 761 3307,35.1530869476615,129.11771328212,08:00 ~ 22:00,08:00 ~ 22:00,08:00 ~ 22:00,08:00 ~ 22:00,08:00 ~ 23:00,08:00 ~ 23:00,08:00 ~ 22:00
더벤티 경성대건학기념관점,부산광역시 남구 수영로 309,,35.1384873078988,129.10010311307,08:00 ~ 17:00,08:00 ~ 17:00,08:00 ~ 17:00,08:00 ~ 17:00,08:00 ~ 17:00,,
이해욱의커피가게,부산광역시 북구 만덕대로15번길 39 (덕천동),,35.2121898624413,129.006148346263,11:00 ~ 21:00,11:00 ~ 17:00,11:00 ~ 21:00,11:00 ~ 17:00,11:00 ~ 21:00,11:00 ~ 21:00,
쥬씨 광안쌍용점,부산광역시 수영구 광안로 20,,35.1560597268621,129.114667093976,10:00 ~ 10:10,10:00 ~ 10:10,10:00 ~ 10:10,10:00 ~ 10:10,10:00 ~ 10:10,10:00 ~ 10:10,10:00 ~ 10:10
복합성,부산광역시 남구 진남로36번길 2,,35.138215055907,129.091567252747,10:00 ~ 20:00,10:00 ~ 20:00,10:00 ~ 20:00,10:00 ~ 20:00,10:00 ~ 20:00,10:00 ~ 20:00,10:00 ~ 20:00
위크엔드커피,부산광역시 북구 화명신도시로 71 (화명동),051365 2021,35.2304571782343,129.009868061232,10:00 ~ 02:00,10:00 ~ 02:00,10:00 ~ 02:00,10:00 ~ 02:00,10:00 ~ 02:00,10:00 ~ 02:00,10:00 ~ 02:00
더벤티,부산광역시 사상구 주례로 82 (주례동),,35.1466137102554,129.007504506884,08:30 ~ 21:00,08:30 ~ 21:00,08:30 ~ 21:00,08:30 ~ 21:00,08:30 ~ 21:00,08:30 ~ 21:00,08:30 ~ 21:00
카페051 더블유스퀘어점,부산광역시 남구 분포로 145,,35.1342294576999,129.111216765972,09:30 ~ 21:00,09:30 ~ 21:00,09:30 ~ 21:00,09:30 ~ 21:00,09:30 ~ 21:00,09:30 ~ 21:00,09:30 ~ 21:00
그린찬스,부산광역시 남구 전포대로 18 (문현동),,35.1384463313651,129.067998600042,10:00 ~ 24:00,10:00 ~ 24:00,10:00 ~ 24:00,10:00 ~ 24:00,10:00 ~ 24:00,10:00 ~ 24:00,10:00 ~ 24:00
이디야사상점,부산광역시 사상구 광장로 17 (괘법동,051 325 0796,35.1642365382579,128.978888681143,10:00 ~ 21:45,10:00 ~ 21:45,10:00 ~ 21:45,10:00 ~ 21:45,10:00 ~ 21:45,,
더카페 덕천4층점,부산광역시 북구 만덕대로 23 (덕천동),051 366 2424,35.2111074893963,129.007592963592,10:00 ~ 22:00,10:00 ~ 22:00,10:00 ~ 22:00,10:00 ~ 22:00,10:00 ~ 22:00,10:00 ~ 22:00,10:00 ~ 22:00
쉴만한물가(커피전문점),부산광역시 북구 금곡대로200번길 8 (화명동),051 332 0414,35.226697951816,129.011708116273,10:00 ~ 23:00,10:00 ~ 23:00,10:00 ~ 23:00,10:00 ~ 23:00,10:00 ~ 23:00,10:00 ~ 23:00,
필롱,부산광역시 남구 수영로322번길 50-1,,35.135682836723,129.102325537474,12:00 ~ 22:00,12:00 ~ 22:00,12:00 ~ 22:00,12:00 ~ 22:00,12:00 ~ 22:00,12:00 ~ 22:00,12:00 ~ 22:00
시즈널 프로젝트,부산광역시 남구 석포로126번길 7 (대연동,,35.1283713808379,129.091924646673,,11:00 ~ 20:00,11:00 ~ 20:00,11:00 ~ 20:00,11:00 ~ 20:00,11:00 ~ 20:00,11:00 ~ 20:00
스타벅스 동명대DT점,부산광역시 남구 신선로 423 (용당동),051 611 4335,35.1231052079437,129.098972733227,07:00 ~ 23:00,07:00 ~ 23:00,07:00 ~ 23:00,07:00 ~ 23:00,07:00 ~ 23:00,07:00 ~ 23:00,07:00 ~ 23:00
매머드 익스프레스 부산bifc몰점,부산광역시 남구 문현금융로 40 (문현동,051 638 5331,35.1464917263976,129.065854840531,07:30 ~ 20:00,07:30 ~ 20:00,07:30 ~ 20:00,07:30 ~ 20:00,07:30 ~ 20:00,,
텐퍼센트 연산SK뷰점,부산광역시 연제구 중앙대로 1130 (연산동,070 77571010,35.1882824874217,129.081426160884,08:00 ~ 22:00,08:00 ~ 22:00,08:00 ~ 22:00,08:00 ~ 22:00,08:00 ~ 22:00,08:00 ~ 22:00,08:00 ~ 21:00
플레이스 38,부산광역시 연제구 고분로13번길 15,070 82835992,35.1867468196095,129.084181914896,10:00 ~ 24:00,10:00 ~ 24:00,10:00 ~ 24:00,10:00 ~ 24:00,10:00 ~ 24:00,,
원카페,부산광역시 북구 금곡대로 270,051 362 1542,35.2323787742895,129.01388655507,09:00 ~ 20:00,09:00 ~ 20:00,09:00 ~ 20:00,09:00 ~ 20:00,09:00 ~ 20:00,09:00 ~ 20:00,09:00 ~ 20:00
주커피(JOO COFFEE) 시청점,부산광역시 연제구 거제천로 109,051 867 1160,35.1838203292322,129.074248747538,10:10 ~ 02:00,10:10 ~ 02:00,10:10 ~ 02:00,10:10 ~ 02:00,10:10 ~ 02:00,10:10 ~ 02:00,10:10 ~ 02:00
감성커피 부산시청점,부산광역시 연제구 중앙대로 1033,,35.180932309279,129.077144595692,08:00 ~ 23:30,08:00 ~ 23:30,08:00 ~ 23:30,08:00 ~ 23:30,08:00 ~ 23:30,08:00 ~ 23:30,08:00 ~ 23:30
카페051용호메트로시티점,부산광역시 남구 분포로 113,,35.1272669147748,129.109040555258,08:00 ~ 22:00,08:00 ~ 22:00,08:00 ~ 22:00,08:00 ~ 22:00,08:00 ~ 22:00,08:00 ~ 22:00,08:00 ~ 22:00
스윗비초콜릿,부산광역시 북구 덕천2길 87 (덕천동),,35.2101332509898,129.009921587494,10:00 ~ 20:00,10:00 ~ 20:00,10:00 ~ 20:00,10:00 ~ 20:00,10:00 ~ 20:00,10:00 ~ 20:00,
못골살롱,부산광역시 남구 못골로41번길 36,,35.1373941934072,129.086995365561,,,14:00 ~ 20:00,14:00 ~ 20:00,14:00 ~ 20:00,,
블루샥 화명수정점,부산광역시 북구 학사로 15 (화명동,051 3131020,35.2241631567039,129.007676826692,08:00 ~ 22:00,08:00 ~ 22:00,08:00 ~ 22:00,08:00 ~ 22:00,08:00 ~ 22:00,08:00 ~ 22:00,08:00 ~ 22:00
컴포즈커피 대연사거리점,부산광역시 남구 진남로 6,051 714 2368,35.1355928696658,129.091979217519,07:30 ~ 21:00,07:30 ~ 21:00,07:30 ~ 21:00,07:30 ~ 21:00,07:30 ~ 21:00,08:30 ~ 21:00,08:30 ~ 21:00
디카페(Decafe),부산광역시 남구 자성로 152,,35.1364897612208,129.066903536606,10:30 ~ 22:00,10:30 ~ 22:00,10:30 ~ 22:00,10:30 ~ 22:00,10:30 ~ 22:00,10:30 ~ 22:00,10:30 ~ 22:00
덤커피(DUM Coffee),부산광역시 북구 화명신도시로 115 (화명동,051 365 3088,35.2344024913289,129.010441435269,10:00 ~ 23:00,10:00 ~ 23:00,10:00 ~ 23:00,10:00 ~ 23:00,10:00 ~ 23:00,10:00 ~ 23:00,10:00 ~ 23:00
할리스 부산경성대2호점,부산광역시 남구 수영로 306,051 611 3021,35.1369167202614,129.099825367555,08:00 ~ 22:00,08:00 ~ 22:00,08:00 ~ 22:00,08:00 ~ 22:00,08:00 ~ 22:00,08:00 ~ 22:00,08:00 ~ 22:00
댄싱컵 부산진역점,부산광역시 동구 중앙대로371번길 12,,35.1290538229162,129.04794281174,07:30 ~ 22:00,07:30 ~ 22:00,07:30 ~ 22:00,07:30 ~ 22:00,07:30 ~ 22:00,09:00 ~ 22:00,09:00 ~ 22:00
봉봉키즈,부산광역시 강서구 명지국제8로 229,051 293 5248,35.0986036375635,128.918010184099,,13:00 ~ 18:00,13:00 ~ 18:00,13:00 ~ 18:00,13:00 ~ 19:00,10:30 ~ 18:30,10:30 ~ 17:30
바른커피,부산광역시 동래구 명안로 85,,35.2042124586597,129.104412431657,10:00 ~ 19:30,10:00 ~ 19:30,10:00 ~ 19:30,10:00 ~ 19:30,10:00 ~ 19:30,10:00 ~ 19:30,11:00 ~ 19:30
빵드마망,부산광역시 기장군 정관읍 병산1길 102-80,051 724 3773,35.3420853094117,129.194730386066,09:30 ~ 20:00,09:30 ~ 20:00,09:30 ~ 20:00,09:30 ~ 20:00,09:30 ~ 20:00,09:30 ~ 20:00,09:30 ~ 20:00
하삼동 커피 동대신동점,부산광역시 서구 구덕로334번길 6 (동대신동3가),051 243 1454,35.1134630842466,129.016225521946,08:00 ~ 22:00,08:00 ~ 22:00,08:00 ~ 22:00,08:00 ~ 22:00,08:00 ~ 22:00,08:00 ~ 22:00,08:00 ~ 22:00
스민,부산광역시 부산진구 서전로58번길 46,,35.1557056036944,129.066021668475,11:00 ~ 22:00,11:00 ~ 22:00,11:00 ~ 22:00,11:00 ~ 22:00,11:00 ~ 22:00,11:00 ~ 22:00,11:00 ~ 22:00
몬몬케이크,부산광역시 부산진구 전포대로186번길 6,,35.1530367213246,129.065821076203,12:00 ~ 20:00,,12:00 ~ 20:00,12:00 ~ 20:00,12:00 ~ 20:00,12:00 ~ 20:00,12:00 ~ 20:00
카페스이,부산광역시 강서구 명지국제12로11번길 16-4,,35.1060660278013,128.922767907569,11:00 ~ 20:00,11:00 ~ 20:00,11:00 ~ 20:00,11:00 ~ 20:00,11:00 ~ 20:00,11:00 ~ 20:00,
카페051 장산점,부산광역시 해운대구 양운로 53,,35.1678955285857,129.176412756177,09:00 ~ 22:00,09:00 ~ 22:00,09:00 ~ 22:00,09:00 ~ 22:00,09:00 ~ 22:00,10:00 ~ 21:00,10:00 ~ 21:00
하삼동커피 구남점,부산광역시 북구 백양대로 1014,051 3387999,35.1961369417659,128.994854925517,08:00 ~ 22:15,08:00 ~ 22:15,08:00 ~ 22:15,08:00 ~ 22:15,08:00 ~ 22:30,08:00 ~ 22:30,08:00 ~ 22:15
마스커피랩,부산광역시 금정구 금강로 271-5,,35.2322669010985,129.08495181661,12:00 ~ 22:00,12:00 ~ 22:00,12:00 ~ 22:00,12:00 ~ 22:00,12:00 ~ 22:00,12:00 ~ 22:00,
커피베이 범어사점(coffee bay),부산광역시 금정구 청룡예전로 5,,35.2739367763661,129.091848450336,09:00 ~ 21:00,09:00 ~ 21:00,09:00 ~ 21:00,09:00 ~ 21:00,09:00 ~ 21:00,09:00 ~ 21:00,09:00 ~ 21:00
커피에 반하다,부산광역시 사상구 대동로 156,,35.1413615656196,128.983814803013,08:45 ~ 19:00,08:45 ~ 19:00,08:45 ~ 19:00,08:45 ~ 19:00,08:45 ~ 19:00,08:45 ~ 19:00,
온타임,부산광역시 북구 산성로 23-9,,35.2398762675324,129.015844364839,10:30 ~ 19:00,10:30 ~ 19:00,10:30 ~ 19:00,10:30 ~ 19:00,10:30 ~ 19:00,10:30 ~ 19:00,10:30 ~ 19:00
카페 이서,부산광역시 강서구 범방3로68번길 14,,35.1488383873864,128.882532964979,,09:00 ~ 21:00,09:00 ~ 21:00,09:00 ~ 21:00,09:00 ~ 21:00,09:00 ~ 21:00,09:00 ~ 21:00
컴포즈커피 정관달산점,부산광역시 기장군 정관읍 정관로 698,051 728 7462,35.3208568011866,129.189478619397,08:30 ~ 22:30,08:30 ~ 22:30,08:30 ~ 22:30,08:30 ~ 22:30,08:30 ~ 22:30,08:30 ~ 22:30,08:30 ~ 22:30
커피베이 금정점,부산광역시 금정구 중앙대로 1799,051 517 4922,35.2449047608091,129.092759502825,08:00 ~ 22:00,08:00 ~ 22:00,08:00 ~ 22:00,08:00 ~ 22:00,08:00 ~ 22:00,09:00 ~ 22:00,09:00 ~ 22:00
설빙 부산남포점,부산광역시 중구 광복로 54-2,051 256 3949,35.0991138956173,129.031014685567,11:00 ~ 22:30,11:00 ~ 22:30,11:00 ~ 22:30,11:00 ~ 22:30,11:00 ~ 22:30,11:00 ~ 22:30,11:00 ~ 22:30
카페051 낙민점,부산광역시 동래구 안남로31번길 6,,35.1944880491339,129.095921963408,08:00 ~ 21:00,08:00 ~ 21:00,08:00 ~ 21:00,08:00 ~ 21:00,08:00 ~ 21:00,08:00 ~ 21:00,08:00 ~ 21:00
레이븐(raven)커피,부산광역시 부산진구 진연로9번길 39,,35.1770271936885,129.07316183223,09:30 ~ 20:00,09:30 ~ 20:00,09:30 ~ 20:00,09:30 ~ 20:00,09:30 ~ 20:00,12:00 ~ 19:00,12:00 ~ 19:00
음료실,부산광역시 중구 중구로62번길 5-1,,35.1034087775313,129.028654393348,12:00 ~ 20:00,12:00 ~ 20:00,12:00 ~ 20:00,12:00 ~ 20:00,12:00 ~ 20:00,12:00 ~ 20:00,12:00 ~ 20:00
이안띠커피랩,부산광역시 해운대구 달맞이길117번라길 80,,35.1616041333545,129.182101496556,09:30 ~ 17:00,09:30 ~ 17:00,09:30 ~ 19:00,09:30 ~ 17:00,09:30 ~ 17:00,09:30 ~ 18:00,
포레스트,부산광역시 동구 중앙대로236번길 3-8,,35.1183693971817,129.042341440436,06:30 ~ 19:00,06:30 ~ 19:00,06:30 ~ 19:00,06:30 ~ 19:00,06:30 ~ 19:00,,
카페라벨,부산광역시 영도구 봉래나루로 82,051 790 1500,35.0944992426888,129.039129890579,09:00 ~ 18:00,09:00 ~ 18:00,09:00 ~ 18:00,09:00 ~ 18:00,09:00 ~ 18:00,09:00 ~ 18:00,09:00 ~ 18:00
카페아뽕,부산광역시 사하구 옥천로75번길 28,,35.094432078905,129.008916912651,10:00 ~ 22:00,10:00 ~ 22:00,10:00 ~ 22:00,10:00 ~ 22:00,10:00 ~ 22:00,10:00 ~ 22:00,10:00 ~ 22:00
스타벅스 다대포비치점,부산광역시 사하구 다대로 714,051 2613610,35.049135845511,128.963576442214,08:00 ~ 21:00,08:00 ~ 21:00,08:00 ~ 21:00,08:00 ~ 21:00,08:00 ~ 21:00,08:00 ~ 21:00,08:00 ~ 21:00
카페051 온천장역점,부산광역시 동래구 중앙대로 1523,,35.2212896964575,129.08557677639,08:00 ~ 20:00,08:00 ~ 20:00,08:00 ~ 20:00,08:00 ~ 20:00,08:00 ~ 20:00,09:00 ~ 20:00,09:00 ~ 20:00
하삼동커피 안락점,부산광역시 동래구 충렬대로359번길 15,,35.1987461306926,129.098165709501,09:00 ~ 23:00,09:00 ~ 23:00,09:00 ~ 23:00,09:00 ~ 23:00,09:00 ~ 23:00,09:00 ~ 23:00,09:00 ~ 23:00
더벤티 국제시장점,부산광역시 중구 대청로 71-1,,35.1032929697596,129.027782485124,08:00 ~ 22:30,08:00 ~ 22:30,08:00 ~ 22:30,08:00 ~ 22:30,08:00 ~ 22:30,09:00 ~ 22:30,09:00 ~ 22:30
메가커피 해운대시장점,부산광역시 해운대구 중동1로 35,,35.162477866387,129.163373964376,10:50 ~ 11:00,,,,,,
동카페,부산광역시 금정구 북문로 19,051 752 1513,35.2516412813044,129.055968527904,11:00 ~ 21:00,11:00 ~ 21:00,11:00 ~ 21:00,11:00 ~ 21:00,11:00 ~ 21:00,11:00 ~ 21:00,12:00 ~ 20:00
인더포레,부산광역시 사상구 주례로 45,,35.1464508547704,129.009070654332,10:00 ~ 22:00,10:00 ~ 22:00,10:00 ~ 22:00,,10:00 ~ 22:00,10:00 ~ 22:00,10:00 ~ 22:00
카페스밈,부산광역시 강서구 명지국제6로318번길 20-10,,35.1027179396491,128.925762896787,11:00 ~ 22:00,11:00 ~ 22:00,11:00 ~ 22:00,11:00 ~ 22:00,11:00 ~ 22:00,11:00 ~ 22:00,11:00 ~ 22:00
카페824,부산광역시 기장군 기장읍 기장해안로 824,,35.2296396936623,129.241990727538,11:00 ~ 22:00,11:00 ~ 22:00,11:00 ~ 22:00,11:00 ~ 22:00,11:00 ~ 23:00,11:00 ~ 23:00,11:00 ~ 23:00
코코벨로스,부산광역시 금정구 학산로13번길 41,,35.2650573174504,129.089135742817,10:00 ~ 20:30,10:00 ~ 20:30,10:00 ~ 20:30,10:00 ~ 20:30,10:00 ~ 20:30,10:00 ~ 20:30,
킹프레소 대연점,부산광역시 남구 유엔평화로 11,051 9258000,35.1339351911446,129.092135569161,08:00 ~ 00:30,08:00 ~ 00:30,08:00 ~ 00:30,08:00 ~ 00:30,09:00 ~ 23:30,10:00 ~ 20:30,09:00 ~ 00:20
컴포즈커피 연산일동미라주점,부산광역시 연제구 반송로 80,051 853 4546,35.1906164745463,129.087915053233,09:00 ~ 21:00,09:00 ~ 21:00,09:00 ~ 21:00,09:00 ~ 21:00,09:00 ~ 21:00,10:00 ~ 21:00,10:00 ~ 21:00
달퐁,부산광역시 금정구 금강로 457-1,,35.2482830788721,129.088347050613,10:00 ~ 22:00,10:00 ~ 22:00,10:00 ~ 22:00,10:00 ~ 22:00,10:00 ~ 22:00,10:00 ~ 22:00,10:00 ~ 22:00
컴포즈커피명륜점,부산광역시 동래구 명륜로 170,,35.2099506283549,129.082954713533,08:00 ~ 22:00,08:00 ~ 22:00,08:00 ~ 22:00,08:00 ~ 22:00,08:00 ~ 22:00,08:00 ~ 22:00,08:00 ~ 22:00
카페명지,부산광역시 강서구 명지국제5로 141,,35.1075308265119,128.921120157931,08:00 ~ 18:00,08:00 ~ 18:00,08:00 ~ 18:00,08:00 ~ 18:00,08:00 ~ 18:00,08:00 ~ 18:00,
더리터안락점,부산광역시 동래구 안락로 74,,35.1992482145105,129.104982557463,09:15 ~ 21:45,09:15 ~ 21:45,09:15 ~ 21:45,09:15 ~ 21:45,09:15 ~ 21:45,09:15 ~ 21:45,09:15 ~ 21:45
벌브,부산광역시 사하구 마하로12번길 10,,35.1011444986137,128.981735716487,,11:00 ~ 19:00,11:00 ~ 19:00,11:00 ~ 19:00,11:00 ~ 19:00,11:00 ~ 19:00,11:00 ~ 19:00
엔제리너스(센트럴병원),부산광역시 북구 만덕대로 37,,35.2113491011811,129.009091254048,08:00 ~ 19:00,08:00 ~ 19:00,08:00 ~ 19:00,08:00 ~ 19:00,08:00 ~ 19:00,08:00 ~ 19:00,08:00 ~ 19:00
4242샌드위치 서면점,부산광역시 부산진구 중앙대로 712-1,,35.1563733388681,129.059457165513,09:00 ~ 20:40,09:00 ~ 20:40,09:00 ~ 20:40,09:00 ~ 20:40,09:00 ~ 20:40,09:00 ~ 20:40,09:00 ~ 20:40
메가엠지씨커피 센텀비스타점,부산광역시 수영구 무학로63번길 142,051 752 5060,35.1674750533115,129.118971576322,08:00 ~ 21:00,08:00 ~ 21:00,08:00 ~ 21:00,08:00 ~ 21:00,08:00 ~ 21:00,09:00 ~ 21:00,09:00 ~ 21:00
컴포즈커피 괴정대로점,부산광역시 사하구 낙동대로 225,,35.0995767721192,128.992356762873,08:00 ~ 22:30,08:00 ~ 22:30,08:00 ~ 22:30,08:00 ~ 22:30,08:00 ~ 22:30,08:00 ~ 22:30,09:00 ~ 22:30
마시,부산광역시 북구 의성로 114,,35.2103981927238,129.010811368779,17:00 ~ 03:00,17:00 ~ 03:00,17:00 ~ 03:00,17:00 ~ 03:00,17:00 ~ 03:00,17:00 ~ 03:00,17:00 ~ 03:00
감성커피 수영점,부산광역시 수영구 무학로9번길 141,051 754 6184,35.1674916607834,129.117532851905,13:00 ~ 24:00,13:15 ~ 24:00,13:00 ~ 01:00,13:00 ~ 01:00,13:00 ~ 01:00,13:00 ~ 01:00,13:00 ~ 01:00
뉴욕보틀,부산광역시 부산진구 엄광로 36-7,,35.147874482649,129.020158643233,08:00 ~ 23:00,08:00 ~ 23:00,08:00 ~ 23:00,08:00 ~ 23:00,08:00 ~ 23:00,08:00 ~ 23:00,08:00 ~ 23:00
메리골드,부산광역시 서구 구덕로148번길 21,,35.0982218834082,129.021924087161,07:30 ~ 22:00,07:30 ~ 22:00,07:30 ~ 22:00,07:30 ~ 22:00,07:30 ~ 22:00,08:30 ~ 22:00,08:30 ~ 22:00
컴포즈커피 토곡점,부산광역시 연제구 고분로 240,,35.1842651482688,129.10846374938,08:30 ~ 22:30,08:30 ~ 22:30,08:30 ~ 22:30,08:30 ~ 22:30,08:30 ~ 22:30,08:30 ~ 22:30,08:30 ~ 22:30
매머드익스프레스 경성대점,부산광역시 남구 수영로 295,,35.137014971474,129.098362610132,08:10 ~ 22:00,08:10 ~ 22:00,08:10 ~ 22:00,08:10 ~ 22:00,08:10 ~ 22:00,09:00 ~ 20:00,10:00 ~ 17:00
카페이띠,부산광역시 사상구 주례로 46,,35.1469733224303,129.011005848698,09:00 ~ 21:00,09:00 ~ 21:00,09:00 ~ 21:00,09:00 ~ 21:00,09:00 ~ 21:00,09:00 ~ 21:00,09:00 ~ 21:00
Amy(에이미),부산광역시 영도구 와치로 187,,35.0784457291216,129.064498746847,10:00 ~ 22:00,10:00 ~ 22:00,10:00 ~ 22:00,10:00 ~ 22:00,10:00 ~ 22:00,10:00 ~ 22:00,10:00 ~ 22:00
조이든,부산광역시 부산진구 엄광로 63,,35.1480395127697,129.02309965507,07:30 ~ 21:00,07:30 ~ 21:00,07:30 ~ 21:00,07:30 ~ 21:00,07:30 ~ 21:00,08:00 ~ 19:00,10:00 ~ 18:00
대런즈가든(DARREN'S GARDEN),부산광역시 수영구 남천바다로 20,,35.1491868345467,129.112729876307,,,,12:00 ~ 19:00,12:00 ~ 19:00,12:00 ~ 19:00,
1인사무소,부산광역시 수영구 광남로 55,,35.1474380608703,129.11222330618,12:00 ~ 18:00,12:00 ~ 18:00,12:00 ~ 18:00,12:00 ~ 18:00,12:00 ~ 18:00,12:00 ~ 18:00,
511커피,부산광역시 동래구 시실로 60,,35.2142182597412,129.088708217106,10:00 ~ 22:00,10:00 ~ 22:00,10:00 ~ 22:00,10:00 ~ 22:00,10:00 ~ 22:00,10:00 ~ 22:00,10:00 ~ 22:00
감성커피 토곡점,부산광역시 연제구 과정로 171-1,051 911 2282,35.1868305863114,129.10694971078,08:00 ~ 22:00,08:00 ~ 22:00,08:00 ~ 22:00,08:00 ~ 22:00,08:00 ~ 22:00,08:00 ~ 22:00,10:00 ~ 21:00
한민이의 마크로비오틱,부산광역시 수영구 수영로522번길 41,,35.1519386654192,129.113991073713,,11:00 ~ 19:00,11:00 ~ 19:00,11:00 ~ 19:00,11:00 ~ 20:00,11:00 ~ 20:00,11:00 ~ 19:00
제주스 센텀,부산광역시 해운대구 센텀동로 6,,35.1709132429029,129.133691863258,10:00 ~ 22:00,10:00 ~ 22:00,10:00 ~ 22:00,10:00 ~ 22:00,10:00 ~ 22:00,10:00 ~ 22:00,10:00 ~ 22:00
하이오커피 기장시장점,부산광역시 기장군 기장읍 읍내로 103,,35.2452174866305,129.215672639293,08:30 ~ 22:00,08:30 ~ 22:00,08:30 ~ 22:00,08:30 ~ 22:00,08:30 ~ 22:00,08:30 ~ 22:00,08:30 ~ 22:00
크샤나,부산광역시 기장군 일광읍 물방길 98,,35.2641665406657,129.211460129798,11:00 ~ 18:00,11:00 ~ 18:00,11:00 ~ 18:00,11:00 ~ 18:00,11:00 ~ 18:00,11:00 ~ 18:00,11:00 ~ 18:00
달리는커피 부산지사동점,부산광역시 강서구 과학산단로334번나길 27,051 973 9325,35.1505154774917,128.834228662262,09:30 ~ 19:30,09:30 ~ 19:30,09:30 ~ 19:30,09:30 ~ 19:30,09:30 ~ 19:30,09:30 ~ 19:30,09:30 ~ 19:30
브라운핸즈 보수동,부산광역시 중구 책방골목길 17-3,,35.10343231387,129.027026994596,11:00 ~ 21:00,11:00 ~ 21:00,11:00 ~ 21:00,11:00 ~ 21:00,11:00 ~ 21:00,11:00 ~ 21:00,11:00 ~ 21:00
일과이분의일,부산광역시 금정구 수림로61번길 53,,35.2374416773284,129.085556700558,18:00 ~ 04:00,18:00 ~ 04:00,18:00 ~ 04:00,18:00 ~ 04:00,18:00 ~ 04:00,18:00 ~ 04:00,18:00 ~ 04:00
댄싱컵 초량점,부산광역시 동구 홍곡로 50,,35.1230980159299,129.039977255617,08:00 ~ 21:00,08:00 ~ 21:00,08:00 ~ 21:00,08:00 ~ 21:00,08:00 ~ 21:00,09:00 ~ 21:00,09:00 ~ 21:00
구공카페,부산광역시 부산진구 부전로95번길 6,,35.1588124290993,129.054501512525,09:00 ~ 22:00,09:00 ~ 22:00,09:00 ~ 22:00,09:00 ~ 22:00,09:00 ~ 22:00,09:00 ~ 22:00,09:00 ~ 22:00
피치앤크림,부산광역시 해운대구 반여로167번길 68-1,,35.2077932794888,129.123859750266,09:00 ~ 20:30,09:00 ~ 20:30,09:00 ~ 20:30,09:00 ~ 20:30,09:00 ~ 20:30,06:30 ~ 20:30,06:30 ~ 20:30
바첼커피,부산광역시 해운대구 센텀3로 20,,35.1678106760758,129.132817784816,,12:00 ~ 20:00,12:00 ~ 20:00,12:00 ~ 20:00,12:00 ~ 20:00,12:00 ~ 20:00,12:00 ~ 20:00
카페드지,부산광역시 남구 신선로329번길 26,,35.1151270145551,129.093594784193,10:00 ~ 17:00,10:00 ~ 17:00,10:00 ~ 17:00,10:00 ~ 17:00,10:00 ~ 17:00,,
아브라함 커피랩,부산광역시 영도구 와치로 195,,35.077857525133,129.064652742881,13:30 ~ 17:30,13:30 ~ 17:30,13:30 ~ 17:30,,13:30 ~ 17:30,13:30 ~ 17:30,
모브커피(Mov coffee),부산광역시 동래구 명륜로 81,,35.2011454362058,129.083831393405,11:30 ~ 22:30,11:30 ~ 22:30,11:30 ~ 22:30,11:30 ~ 22:30,11:30 ~ 22:30,11:30 ~ 22:30,11:30 ~ 22:30
봄봄부산용호점,부산광역시 남구 용주로6번길 4,,35.1129445026819,129.111278657825,10:00 ~ 22:00,10:00 ~ 22:00,10:00 ~ 22:00,10:00 ~ 22:00,10:00 ~ 22:00,10:00 ~ 22:00,10:00 ~ 22:00
컴포즈커피 경성대 제1학생회관점,부산광역시 남구 수영로 309,,35.1384873078988,129.10010311307,08:00 ~ 18:00,08:00 ~ 18:00,08:00 ~ 18:00,08:00 ~ 18:00,08:00 ~ 18:00,10:00 ~ 14:00,
카페051 엄궁점,부산광역시 사상구 낙동대로 749,051 715 0159,35.1282146239817,128.969342193269,08:00 ~ 22:00,08:00 ~ 22:00,08:00 ~ 22:00,08:00 ~ 22:00,08:00 ~ 22:00,09:00 ~ 22:00,09:00 ~ 22:00
빽다방 부산수영구청점,부산광역시 수영구 광남로 31,,35.1456738154012,129.110732675513,07:30 ~ 19:30,07:30 ~ 19:30,07:30 ~ 19:30,07:30 ~ 19:30,07:30 ~ 19:30,07:30 ~ 19:30,07:30 ~ 19:30
메종드콘뷰커피,부산광역시 영도구 와치로37번길 4,,35.0890843765238,129.059749452058,08:00 ~ 23:00,08:00 ~ 23:00,08:00 ~ 23:00,08:00 ~ 23:00,08:00 ~ 23:00,08:00 ~ 23:00,08:00 ~ 23:00
고더커피 남천점,부산광역시 수영구 남천동로 23,,35.141928186684,129.111067742926,09:00 ~ 17:30,09:00 ~ 17:30,09:00 ~ 17:30,09:00 ~ 17:30,09:00 ~ 17:30,09:00 ~ 17:30,09:00 ~ 17:30
샌드리아 덕포역점,부산광역시 사상구 사상로 300,,35.1716317464552,128.983687212587,,09:00 ~ 20:00,09:00 ~ 20:00,09:00 ~ 20:00,09:00 ~ 20:00,09:00 ~ 20:00,09:00 ~ 19:00
텐퍼센트 덕포역점,부산광역시 사상구 사상로 300,,35.1716317464552,128.983687212587,08:00 ~ 21:00,08:00 ~ 21:00,08:00 ~ 21:00,08:00 ~ 21:00,08:00 ~ 21:00,08:00 ~ 21:00,08:00 ~ 21:00
텐퍼센트커피 초량베스티움점,부산광역시 동구 홍곡로 37,,35.1244037750158,129.038362454203,07:30 ~ 21:30,07:30 ~ 21:30,07:30 ~ 21:30,07:30 ~ 21:30,07:30 ~ 21:30,09:00 ~ 21:00,09:00 ~ 21:00
카페위너(cafe winner),부산광역시 사하구 낙동대로 374,,35.1025790649195,128.977318118085,10:00 ~ 21:30,10:00 ~ 21:30,10:00 ~ 21:30,10:00 ~ 21:30,10:00 ~ 21:30,10:00 ~ 21:30,10:00 ~ 21:30
버드소리 영도점,부산광역시 영도구 태종로700번길 19,,35.0715705478664,129.074990216614,11:00 ~ 19:00,,11:00 ~ 19:00,11:00 ~ 19:00,11:00 ~ 19:00,11:00 ~ 19:00,11:00 ~ 19:00
카페051,부산광역시 강서구 낙동북로188번길 25,,35.2131953441848,128.948191501775,08:30 ~ 19:00,08:30 ~ 19:00,08:30 ~ 19:00,08:30 ~ 19:00,08:30 ~ 19:00,08:30 ~ 18:00,
수성커피,부산광역시 부산진구 동성로25번길 11,,35.1526376232046,129.067815626121,13:00 ~ 23:00,13:00 ~ 23:00,13:00 ~ 23:00,13:00 ~ 23:00,13:00 ~ 23:00,13:00 ~ 23:00,13:00 ~ 23:00
하이오커피,부산광역시 남구 진남로 122,,35.1384539735618,129.081867449208,08:30 ~ 22:00,08:30 ~ 22:00,08:30 ~ 22:00,08:30 ~ 22:00,08:30 ~ 22:00,09:00 ~ 22:00,09:00 ~ 22:00
댄싱컵 동래문화상사점,부산광역시 동래구 중앙대로1335번길 77,,35.2074751225814,129.073689621376,08:00 ~ 20:00,08:00 ~ 20:00,08:00 ~ 20:00,08:00 ~ 20:00,08:00 ~ 20:00,09:00 ~ 20:00,09:00 ~ 20:00
더원카페,부산광역시 동래구 명안로 60-1,,35.2019438853657,129.104465649991,11:00 ~ 22:00,11:00 ~ 22:00,11:00 ~ 22:00,11:00 ~ 22:00,11:00 ~ 22:00,12:00 ~ 22:00,12:00 ~ 22:00
카페로쏘,부산광역시 동래구 반송로341번길 12,,35.2102650008042,129.103817085435,09:00 ~ 21:00,09:00 ~ 21:00,09:00 ~ 21:00,09:00 ~ 21:00,09:00 ~ 21:00,09:00 ~ 21:00,
히떼 로스터리,부산광역시 강서구 공항로 475,,35.1503124193686,128.952592614646,08:30 ~ 20:00,08:30 ~ 20:00,08:30 ~ 20:00,08:30 ~ 20:00,08:30 ~ 20:00,10:30 ~ 20:00,10:30 ~ 20:00
해그리다,부산광역시 수영구 민락수변로239번길 14,,35.1632346890465,129.128657128924,10:00 ~ 22:00,10:00 ~ 22:00,10:00 ~ 22:00,10:00 ~ 22:00,10:00 ~ 22:00,10:00 ~ 22:00,10:00 ~ 22:00
레디커피(Ready coffee),부산광역시 해운대구 선수촌로 66-1,,35.1993186424015,129.119469947317,08:00 ~ 20:00,08:00 ~ 20:00,08:00 ~ 20:00,08:00 ~ 20:00,08:00 ~ 20:00,08:00 ~ 19:00,09:00 ~ 18:00
어오케이커피,부산광역시 동래구 사직북로33번길 12,,35.1987844391195,129.059494051916,07:00 ~ 21:30,07:00 ~ 21:30,07:00 ~ 21:30,07:00 ~ 21:30,07:00 ~ 21:30,09:00 ~ 21:30,09:00 ~ 21:30
카페 진주,부산광역시 사하구 승학로 11,,35.106710221224,128.970172563159,11:00 ~ 21:00,11:00 ~ 21:00,11:00 ~ 21:00,11:00 ~ 21:00,11:00 ~ 21:00,11:00 ~ 21:00,11:00 ~ 21:00
씨씨씨씨,부산광역시 부산진구 동성로25번길 11,,35.1526376232046,129.067815626121,21:00 ~ 04:00,21:00 ~ 04:00,21:00 ~ 04:00,21:00 ~ 04:00,21:00 ~ 05:00,21:00 ~ 05:00,
원유로스페셜티 부산진세무서점,부산광역시 동구 진성로 24-1,,35.1307228135522,129.04718406689,07:30 ~ 20:00,07:30 ~ 20:00,07:30 ~ 20:00,07:30 ~ 20:00,07:30 ~ 20:00,09:00 ~ 19:00,09:00 ~ 19:00
크러그 남포점,부산광역시 중구 광복로 23-1,,35.0995109343498,129.027673660685,08:00 ~ 21:00,08:00 ~ 21:00,08:00 ~ 21:00,08:00 ~ 21:00,08:00 ~ 21:00,08:00 ~ 21:00,08:00 ~ 21:00
스타벅스 남천더샵점,부산광역시 수영구 수영로 389,,35.1423137657431,129.105669413733,07:30 ~ 21:30,07:30 ~ 21:30,07:30 ~ 21:30,07:30 ~ 21:30,07:30 ~ 21:30,07:30 ~ 21:30,07:30 ~ 21:30
월남덕커피,부산광역시 금정구 금강로 279,,35.2329870400942,129.085368277748,09:00 ~ 22:30,09:00 ~ 22:30,09:00 ~ 22:30,09:00 ~ 22:30,09:00 ~ 10:30,10:30 ~ 22:00,10:30 ~ 22:00
블루샥 하버시티점,부산광역시 동구 범일로 21,,35.1326704859309,129.057266019849,08:00 ~ 21:00,08:00 ~ 21:00,08:00 ~ 21:00,08:00 ~ 21:00,08:00 ~ 21:00,08:00 ~ 21:00,09:00 ~ 21:00
닝구르,부산광역시 동래구 온천장로 113,,35.2207878603713,129.084509054163,,11:30 ~ 19:30,11:30 ~ 19:30,11:30 ~ 19:30,11:30 ~ 19:30,11:30 ~ 19:30,11:30 ~ 19:30
프룻쿠리,부산광역시 강서구 신호산단5로 43-5,,35.0835650240942,128.877678972295,09:50 ~ 22:00,09:50 ~ 22:00,09:50 ~ 22:00,09:50 ~ 22:00,09:50 ~ 22:00,09:50 ~ 22:00,
카페051 사상중흥S클래스점,부산광역시 사상구 사상로 300,,35.1716317464552,128.983687212587,08:00 ~ 22:00,08:00 ~ 22:00,08:00 ~ 22:00,08:00 ~ 22:00,08:00 ~ 22:00,08:00 ~ 22:00,08:00 ~ 22:00
카페벽돌,부산광역시 부산진구 서면로 46,,35.1548199041731,129.058042362966,11:00 ~ 22:00,11:00 ~ 22:00,11:00 ~ 22:00,11:00 ~ 22:00,11:00 ~ 22:00,11:00 ~ 22:00,11:00 ~ 22:00
쿠키담,부산광역시 서구 대영로 11,,35.110525326144,129.01331569656,11:00 ~ 19:00,,,11:00 ~ 19:00,11:00 ~ 19:00,11:00 ~ 19:00,11:00 ~ 19:00
텐퍼센트 해운대 달맞이점,부산광역시 해운대구 달맞이길 58,,35.1611120422591,129.171075763555,08:00 ~ 21:00,08:00 ~ 21:00,08:00 ~ 21:00,08:00 ~ 21:00,08:00 ~ 21:00,08:00 ~ 21:00,08:00 ~ 21:00
텐퍼센트 스위첸점,부산광역시 부산진구 양연로 36,,35.1723960004205,129.079723130345,08:00 ~ 21:00,08:00 ~ 21:00,08:00 ~ 21:00,08:00 ~ 21:00,08:00 ~ 21:00,08:00 ~ 21:00,08:00 ~ 21:00
더벤티 센텀점,부산광역시 해운대구 센텀중앙로 60,,35.1738293291721,129.128860387516,07:00 ~ 21:00,07:00 ~ 21:00,07:00 ~ 21:00,07:00 ~ 21:00,07:00 ~ 21:00,08:00 ~ 19:00,08:00 ~ 19:00
블루샥 중앙동40계단점,부산광역시 중구 해관로 72-1,,35.1053482294797,129.035649455541,07:00 ~ 22:00,07:00 ~ 22:00,07:00 ~ 22:00,07:00 ~ 22:00,07:00 ~ 22:00,08:00 ~ 22:00,08:00 ~ 22:00
카페cafe051 백양산롯데캐슬점,부산광역시 부산진구 당감서로98번길 29,,35.1696987733142,129.035787721876,09:00 ~ 20:30,09:00 ~ 20:30,09:00 ~ 20:30,09:00 ~ 20:30,09:00 ~ 20:30,09:00 ~ 20:30,09:00 ~ 20:30
하삼동커피 하버시티점,부산광역시 동구 범일로 21,,35.1326704859309,129.057266019849,08:00 ~ 22:00,08:00 ~ 22:00,08:00 ~ 22:00,08:00 ~ 22:00,08:00 ~ 22:00,08:00 ~ 22:00,08:00 ~ 22:00
예반,부산광역시 기장군 정관읍 산단4로 1,,35.3157031050152,129.180303410773,11:00 ~ 23:00,11:00 ~ 23:00,11:00 ~ 23:00,11:00 ~ 23:00,11:00 ~ 23:00,11:00 ~ 23:00,11:00 ~ 23:00
온리비커피 서동점,부산광역시 금정구 서동로 172,,35.2143832063794,129.105192288645,08:00 ~ 22:00,08:00 ~ 22:00,08:00 ~ 22:00,08:00 ~ 22:00,08:00 ~ 22:00,08:00 ~ 22:00,08:00 ~ 22:00
카페로온,부산광역시 동래구 충렬대로 219,,35.2023099923668,129.083292332673,11:30 ~ 00:30,11:30 ~ 00:30,11:30 ~ 00:30,11:30 ~ 00:30,11:30 ~ 23:00,11:30 ~ 23:00,
블루샥 더비치 푸르지오점,부산광역시 남구 황령대로492번길 10,051 626 1652,35.1380283470624,129.10678735067,07:00 ~ 20:30,07:00 ~ 20:30,07:00 ~ 20:30,07:00 ~ 20:30,07:00 ~ 20:30,08:00 ~ 20:30,08:00 ~ 20:30
블루샥 대연초점,부산광역시 남구 진남로 46,051 627 1007,35.1382157605794,129.09046146265,08:00 ~ 21:00,08:00 ~ 21:00,08:00 ~ 21:00,08:00 ~ 21:00,08:00 ~ 21:00,09:00 ~ 21:00,09:00 ~ 21:00
동네커피 영도동삼점,부산광역시 영도구 태종로 611,,35.0757047619684,129.074573894336,08:00 ~ 20:00,08:00 ~ 20:00,08:00 ~ 20:00,08:00 ~ 20:00,08:00 ~ 20:00,10:00 ~ 19:00,
어오케이커피 명지국제신도시점,부산광역시 강서구 명지국제8로 259,,35.0982573332603,128.921212065946,07:45 ~ 21:30,07:45 ~ 21:30,07:45 ~ 21:30,07:45 ~ 21:30,07:45 ~ 21:30,08:40 ~ 21:30,08:40 ~ 21:30
프라버브스커피클럽,부산광역시 동래구 안연로102번길 23,,35.1963278689035,129.099071658745,09:00 ~ 18:00,09:00 ~ 18:00,09:00 ~ 18:00,09:00 ~ 18:00,09:00 ~ 18:00,09:00 ~ 18:00,
운유티살롱,부산광역시 동래구 명륜로63번길 11-3,,35.1996824893523,129.083837596373,,11:00 ~ 18:00,11:00 ~ 18:00,11:00 ~ 18:00,11:00 ~ 18:00,11:00 ~ 16:00,11:00 ~ 16:00
스몰굿커피 하단동아대점,부산광역시 사하구 낙동대로 565,,35.113943967405,128.962651939139,08:00 ~ 21:00,08:00 ~ 21:00,08:00 ~ 21:00,08:00 ~ 21:00,08:00 ~ 21:00,08:00 ~ 21:00,08:00 ~ 21:00
윤커피,부산광역시 연제구 연안로14번길 39,,35.1892221012202,129.109363653697,08:00 ~ 17:00,08:00 ~ 17:00,08:00 ~ 17:00,08:00 ~ 17:00,08:00 ~ 17:00,,
빽다방 부산용호현대비치점,부산광역시 남구 용호로42번길 14,,35.12695487974,129.108422424688,08:00 ~ 21:00,08:00 ~ 21:00,08:00 ~ 21:00,08:00 ~ 21:00,08:00 ~ 21:00,08:00 ~ 21:00,08:00 ~ 21:00
어오케이커피 명지오션,부산광역시 강서구 명지오션시티4로 73,,35.0825554451096,128.903948573337,08:00 ~ 21:30,08:00 ~ 21:30,08:00 ~ 21:30,08:00 ~ 21:30,08:00 ~ 21:30,08:00 ~ 21:30,08:00 ~ 21:30
컴포즈커피연산유앤아이점,부산광역시 연제구 묘봉산로 4,,35.182527821509,129.087449584965,08:00 ~ 22:00,08:00 ~ 22:00,08:00 ~ 22:00,08:00 ~ 22:00,08:00 ~ 22:00,08:00 ~ 22:00,08:00 ~ 22:00
시노커피,부산광역시 강서구 신호산단1로 101,,35.0829771969321,128.873704752728,08:00 ~ 18:00,08:00 ~ 18:00,08:00 ~ 18:00,08:00 ~ 18:00,08:00 ~ 18:00,08:00 ~ 14:00,08:00 ~ 14:00
위너스커피사직점,부산광역시 동래구 아시아드대로 163,,35.1989523651233,129.064823553464,08:00 ~ 22:00,08:00 ~ 22:00,08:00 ~ 22:00,08:00 ~ 22:00,08:00 ~ 22:00,09:00 ~ 21:00,09:00 ~ 21:00
위너스커피사직점,부산광역시 동래구 아시아드대로 163,,35.1989523651233,129.064823553464,08:00 ~ 22:00,08:00 ~ 22:00,08:00 ~ 22:00,08:00 ~ 22:00,08:00 ~ 22:00,09:00 ~ 21:00,09:00 ~ 21:00
블루샥 안락점,부산광역시 동래구 안연로 82,,35.1946584953994,129.0984527971,08:00 ~ 22:00,08:00 ~ 22:00,08:00 ~ 22:00,08:00 ~ 22:00,08:00 ~ 22:00,08:00 ~ 22:00,08:00 ~ 22:00
하이오커피 온천시장점,부산광역시 금정구 온천장로125번길 48,,35.2237849902723,129.083253298927,08:00 ~ 22:30,08:00 ~ 22:30,08:00 ~ 22:30,08:00 ~ 22:30,08:00 ~ 22:30,08:00 ~ 22:30,08:00 ~ 22:30
공차 신세계아울렛 부산점,부산광역시 기장군 장안읍 정관로 1133,,35.3238109755463,129.23496623842,10:30 ~ 21:00,10:30 ~ 21:00,10:30 ~ 21:00,10:30 ~ 21:00,10:30 ~ 21:00,10:30 ~ 21:00,10:30 ~ 21:00
블루샥 덕포점,부산광역시 사상구 사상로 249,,35.1669972393628,128.982087800104,08:00 ~ 21:00,08:00 ~ 21:00,08:00 ~ 21:00,08:00 ~ 21:00,08:00 ~ 21:00,09:00 ~ 21:00,09:00 ~ 21:00
전포커피로스터스,부산광역시 부산진구 황령대로17번길 25,,35.1491614922427,129.060962952351,08:00 ~ 18:00,08:00 ~ 18:00,08:00 ~ 18:00,08:00 ~ 18:00,08:00 ~ 18:00,,
카페 마일로 수영센텀병원점,부산광역시 수영구 광서로10번길 54,,35.1664776990292,129.114210935682,07:00 ~ 19:00,07:00 ~ 19:00,07:00 ~ 19:00,07:00 ~ 19:00,07:00 ~ 19:00,08:00 ~ 19:00,
아덴블랑제리 주례롯데점,부산광역시 사상구 가야대로255번길 5,,35.1523287221475,128.996756992175,09:00 ~ 21:00,09:00 ~ 21:00,09:00 ~ 21:00,09:00 ~ 21:00,09:00 ~ 21:00,09:00 ~ 21:00,09:00 ~ 21:00
매머드익스프레스 부산연산중앙점,부산광역시 연제구 거제천로154번길 58,,35.1859719989626,129.079775587983,07:30 ~ 22:00,07:30 ~ 22:00,07:30 ~ 22:00,07:30 ~ 22:00,07:30 ~ 22:00,07:30 ~ 22:00,07:30 ~ 22:00
서랍,부산광역시 중구 대청로135번길 9,,35.1036126633757,129.034559821277,08:00 ~ 18:00,08:00 ~ 18:00,08:00 ~ 18:00,08:00 ~ 18:00,08:00 ~ 18:00,10:00 ~ 17:00,
율하온 하단점,부산광역시 사하구 낙동대로549번길 29,,35.1122723949722,128.962226676766,07:00 ~ 22:00,07:00 ~ 22:00,07:00 ~ 22:00,07:00 ~ 22:00,07:00 ~ 22:30,07:00 ~ 22:30,08:00 ~ 17:00
아홉달,부산광역시 남구 수영로346번길 23,,35.1380131732498,129.104093322639,12:00 ~ 22:00,12:00 ~ 22:00,12:00 ~ 22:00,12:00 ~ 22:00,12:00 ~ 22:00,12:00 ~ 22:00,
피크닉,부산광역시 수영구 수영로510번길 40,,35.1507725658145,129.113609468563,12:00 ~ 20:00,,12:00 ~ 20:00,12:00 ~ 20:00,12:00 ~ 20:00,12:00 ~ 20:00,12:00 ~ 20:00
쿰(Koum),부산광역시 수영구 광안해변로 122,,35.1457931861006,129.114965408767,10:00 ~ 19:00,10:00 ~ 19:00,10:00 ~ 19:00,10:00 ~ 19:00,10:00 ~ 19:00,,
컴포즈커피 수영로점,부산광역시 수영구 수영로 641,,35.1632174456374,129.113822664967,08:30 ~ 22:30,08:30 ~ 22:30,08:30 ~ 22:30,08:30 ~ 22:30,08:30 ~ 22:30,08:30 ~ 22:30,08:30 ~ 22:30
필소굿커피,부산광역시 수영구 광안해변로 44,051 612 0092,35.1386274896434,129.114707023903,10:30 ~ 22:30,10:30 ~ 22:30,10:30 ~ 22:30,10:30 ~ 22:30,10:30 ~ 22:30,10:30 ~ 22:30,10:30 ~ 22:30
달리는커피,부산광역시 수영구 무학로33번길 9,051 755 7009,35.1619138384473,129.11745921076,09:30 ~ 22:00,09:30 ~ 22:00,09:30 ~ 22:00,09:30 ~ 22:00,09:30 ~ 22:00,08:30 ~ 21:00,08:30 ~ 21:00
카페051 수영점,부산광역시 수영구 연수로 409,,35.1683773680956,129.114084537042,07:00 ~ 23:00,07:00 ~ 23:00,07:00 ~ 23:00,07:00 ~ 23:00,07:00 ~ 23:00,08:00 ~ 23:00,08:00 ~ 23:00
스타벅스 광안수변공원점,부산광역시 수영구 민락수변로 29,051 754 3590,35.1532353292792,129.124656209034,09:00 ~ 22:00,08:00 ~ 22:00,08:00 ~ 22:00,08:00 ~ 22:00,08:00 ~ 22:00,08:00 ~ 22:00,09:00 ~ 22:00
애니펫애견카페,부산광역시 수영구 망미로7번길 69 (광안동),051 755 1312,35.1709913564678,129.108843225548,09:00 ~ 21:00,09:00 ~ 21:00,09:00 ~ 21:00,09:00 ~ 21:00,09:00 ~ 21:00,09:00 ~ 21:00,09:00 ~ 21:00
컴포즈커피,부산광역시 금정구 금강로 248-10 (장전동),,35.2300315089077,129.085417487083,10:00 ~ 23:00,10:00 ~ 23:00,10:00 ~ 23:00,10:00 ~ 23:00,10:00 ~ 23:00,10:00 ~ 23:00,10:00 ~ 23:00
더벤티,부산광역시 금정구 구서로 15 (구서동),,35.2466230602696,129.089334523595,07:30 ~ 21:00,07:30 ~ 21:00,07:30 ~ 21:00,07:30 ~ 21:00,07:30 ~ 21:00,08:00 ~ 21:00,09:00 ~ 21:00
이디야광안역점,부산광역시 수영구 수영로588번길 7,051 754 0557,35.1583516793015,129.113652288614,10:00 ~ 21:00,10:00 ~ 21:00,10:00 ~ 21:00,10:00 ~ 21:00,10:00 ~ 21:00,12:00 ~ 19:00,12:00 ~ 19:00
엘리(Alley)402,부산광역시 수영구 수영로402번길 10,051 6264215,35.1412056623922,129.108728123688,10:00 ~ 22:00,10:00 ~ 22:00,10:00 ~ 22:00,10:00 ~ 22:00,10:00 ~ 22:00,10:00 ~ 22:00,10:00 ~ 22:00
스타벅스 부산대정문점,부산광역시 금정구 부산대학로64번길 12,051 514 9770,35.232103721418,129.084558512732,08:00 ~ 22:00,08:00 ~ 22:00,08:00 ~ 22:00,08:00 ~ 22:00,08:00 ~ 22:00,08:00 ~ 22:00,08:00 ~ 22:00
몰로,부산광역시 수영구 황령대로489번길 49,051 905 0777,35.139986487451,129.109307945058,09:30 ~ 22:30,09:30 ~ 22:30,09:30 ~ 22:30,09:30 ~ 22:30,09:30 ~ 22:30,09:30 ~ 22:30,09:30 ~ 22:30
카페파스쿠찌 남산점,부산광역시 금정구 금샘로 351,,35.2545593320721,129.0845982745,09:00 ~ 22:00,09:00 ~ 22:00,09:00 ~ 22:00,09:00 ~ 22:00,09:00 ~ 22:00,09:00 ~ 22:00,09:00 ~ 22:00
Zari(자리),부산광역시 금정구 장전온천천로73번길 8 (장전동),,35.2317130235385,129.088402312307,11:00 ~ 22:00,11:00 ~ 22:00,11:00 ~ 22:00,11:00 ~ 22:00,11:00 ~ 22:00,11:00 ~ 22:00,11:00 ~ 22:00
"카페,하로",부산광역시 북구 금곡대로 316 (화명동),,35.2364139166914,129.014134719075,,09:00 ~ 19:00,09:00 ~ 19:00,09:00 ~ 19:00,09:00 ~ 19:00,09:00 ~ 19:00,09:00 ~ 19:00
번아웃커피(부산대점),부산광역시 금정구 부산대학로64번길 43,,35.233424670004,129.084676120898,10:00 ~ 24:00,10:00 ~ 24:00,10:00 ~ 24:00,10:00 ~ 24:00,10:00 ~ 24:00,10:00 ~ 24:00,10:00 ~ 24:00
커피니(구서점),부산광역시 금정구 중앙대로 1817-5 (구서동),051 515 1325,35.2464011239659,129.092159635902,08:00 ~ 23:00,08:00 ~ 23:00,08:00 ~ 23:00,08:00 ~ 23:00,08:00 ~ 23:00,08:00 ~ 23:00,08:00 ~ 23:00
쥬씨 경성대점,부산광역시 남구 용소로 26 (대연동),051 611 1248,35.1350240064019,129.100626584659,08:00 ~ 23:30,08:00 ~ 23:30,08:00 ~ 23:30,08:00 ~ 23:30,08:00 ~ 23:30,08:00 ~ 23:30,08:00 ~ 23:30
스타벅스경성대점,부산광역시 남구 수영로 312,051 610 1898,35.1369795296869,129.100620669986,08:00 ~ 23:00,07:00 ~ 23:00,07:00 ~ 23:00,07:00 ~ 23:00,07:00 ~ 23:00,07:00 ~ 23:00,08:00 ~ 23:00
스타벅스 다대포DT점,부산광역시 사하구 다대로 493 (다대동),051 264 3432,35.0609480465826,128.975240550468,07:30 ~ 21:30,07:30 ~ 21:30,07:30 ~ 21:30,07:30 ~ 21:30,07:30 ~ 21:30,07:30 ~ 21:30,07:30 ~ 21:30
하삼동커피 다대롯데캐슬몰운대점,부산광역시 사하구 다대낙조2길 100,,35.0553797809279,128.964833086021,07:30 ~ 22:30,07:30 ~ 22:30,07:30 ~ 22:30,07:30 ~ 22:30,07:30 ~ 22:30,07:30 ~ 22:30,07:30 ~ 22:30
커피요정,부산광역시 북구 만덕대로28번길 39,,35.2091286703715,129.008909713596,12:00 ~ 23:00,12:00 ~ 23:00,12:00 ~ 23:00,12:00 ~ 23:00,12:00 ~ 23:00,12:00 ~ 23:00,12:00 ~ 23:00
아래치,부산광역시 사하구 승학로 25,,35.1068543582266,128.971644212763,,,11:00 ~ 20:00,11:00 ~ 20:00,11:00 ~ 20:00,11:00 ~ 20:00,11:00 ~ 20:00
노스커피 장전점,부산광역시 금정구 수림로85번길 53 (장전동),,35.2375413408572,129.083187429264,07:30 ~ 22:00,07:30 ~ 22:00,07:30 ~ 22:00,07:30 ~ 22:00,07:30 ~ 22:00,09:00 ~ 22:00,09:00 ~ 22:00
피스 카인드 홈,부산광역시 중구 흑교로52번길 6-1,,35.1041933953897,129.025456226879,12:00 ~ 18:00,12:00 ~ 18:00,,,12:00 ~ 21:00,12:00 ~ 21:00,12:00 ~ 21:00
소소린 서동점,부산광역시 금정구 서명로 12-1 (서동),,35.2140590332423,129.101772274115,11:00 ~ 22:30,11:00 ~ 22:30,11:00 ~ 22:30,11:00 ~ 22:30,11:00 ~ 22:30,11:00 ~ 22:30,11:00 ~ 22:30
까페엘린테이블,부산광역시 금정구 장전로 58 (장전동),,35.2298003068342,129.083009108954,08:30 ~ 20:00,08:30 ~ 20:00,08:30 ~ 20:00,08:30 ~ 20:00,08:30 ~ 20:00,08:30 ~ 20:00,
키키케이크,부산광역시 중구 광복중앙로33번길 9-1,,35.1021399178094,129.029903290025,12:00 ~ 19:00,12:00 ~ 19:00,,12:00 ~ 19:00,12:00 ~ 19:00,12:00 ~ 19:00,
산에우스타키오일카페코리아,부산광역시 기장군 기장읍 기장해안로 268-32,051 604 7262,35.198193058227,129.228583889941,10:00 ~ 21:00,10:00 ~ 21:00,10:00 ~ 21:00,10:00 ~ 21:00,10:00 ~ 22:00,10:00 ~ 22:00,10:00 ~ 22:00
다락재,부산광역시 북구 금곡대로 180,051 365 0527,35.2248869754549,129.010151815175,12:30 ~ 22:30,12:30 ~ 22:30,12:30 ~ 22:30,12:30 ~ 22:30,12:30 ~ 22:30,12:30 ~ 22:30,12:30 ~ 22:30
카페마카(cafe Maka),부산광역시 북구 덕천로 306,,35.209282137425,129.037310085335,10:00 ~ 21:00,10:00 ~ 21:00,10:00 ~ 21:00,10:00 ~ 21:00,10:00 ~ 21:00,10:00 ~ 21:00,10:00 ~ 21:00
해리카페,부산광역시 북구 만덕대로 5,,35.210482948922,129.005828540315,09:00 ~ 20:30,09:00 ~ 20:30,09:00 ~ 20:30,09:00 ~ 20:30,09:00 ~ 20:30,09:00 ~ 20:30,
나의오늘을다듬다,부산광역시 북구 만덕대로16번길 53,,35.2081700878266,129.007949285988,11:00 ~ 23:00,11:00 ~ 23:00,11:00 ~ 23:00,11:00 ~ 23:00,11:00 ~ 23:00,11:00 ~ 23:00,11:00 ~ 21:00
이디야커피전문점,부산광역시 북구 덕천로 299,,35.2097462319243,129.036555274007,08:30 ~ 23:00,08:30 ~ 23:00,08:30 ~ 23:00,08:30 ~ 23:00,08:30 ~ 23:00,09:30 ~ 23:00,09:30 ~ 23:00
하삼동커피 화명점,부산광역시 북구 화명대로 31,,35.2351996396397,129.011619109568,09:00 ~ 21:40,09:00 ~ 21:40,09:00 ~ 21:40,09:00 ~ 21:40,09:00 ~ 21:40,09:00 ~ 22:10,09:00 ~ 21:40
빽다방부산구남역점,부산광역시 북구 백양대로 1038 (구포동),051 343 0410,35.1980163728941,128.996115124689,10:00 ~ 21:20,10:00 ~ 21:20,10:00 ~ 21:20,10:00 ~ 21:20,10:00 ~ 21:20,10:00 ~ 21:20,10:00 ~ 21:20
컴포즈만덕점,부산광역시 북구 덕천로 303,051 338 0290,35.2096481182379,129.03704121617,08:00 ~ 22:30,08:00 ~ 22:30,08:00 ~ 22:30,08:00 ~ 22:30,08:00 ~ 22:30,08:00 ~ 22:30,08:00 ~ 22:30
더벤티,부산광역시 북구 금곡대로 166,,35.2263603201003,129.012210130511,09:00 ~ 21:00,09:00 ~ 21:00,09:00 ~ 21:00,09:00 ~ 21:00,09:00 ~ 21:00,09:00 ~ 21:00,09:00 ~ 21:00
로드사이드,부산광역시 금정구 범어천로 21 (남산동),,35.2684496591849,129.09055470486,11:00 ~ 21:00,11:00 ~ 21:00,11:00 ~ 21:00,11:00 ~ 21:00,11:00 ~ 21:00,11:00 ~ 21:00,
커피브라운,부산광역시 금정구 금강로279번길 81-6,,35.2355729914673,129.083410898421,00:00 ~ 24:00,00:00 ~ 24:00,00:00 ~ 24:00,00:00 ~ 24:00,00:00 ~ 24:00,00:00 ~ 24:00,00:00 ~ 24:00
어벤더치커피,부산광역시 금정구 오륜대로 47,,35.2434641121285,129.096776518718,08:00 ~ 23:00,08:00 ~ 23:00,08:00 ~ 23:00,08:00 ~ 23:00,08:00 ~ 23:00,08:00 ~ 23:00,08:00 ~ 23:00
블랑85,부산광역시 북구 만덕대로28번길 19,,35.209931606606,129.008622054796,11:00 ~ 21:00,11:00 ~ 21:00,11:00 ~ 21:00,11:00 ~ 21:00,11:00 ~ 21:00,11:00 ~ 21:00,
씨드앤너츠화명점,부산광역시 북구 금곡대로 280-4,,35.2332010270088,129.013835822763,10:00 ~ 20:00,10:00 ~ 20:00,10:00 ~ 20:00,10:00 ~ 20:00,10:00 ~ 20:00,10:00 ~ 18:00,
베니마타르,부산광역시 북구 금곡대로8번길 33,051 334 7778,35.2115061664524,129.007223409773,11:50 ~ 23:00,11:50 ~ 23:00,11:50 ~ 23:00,11:50 ~ 23:00,11:50 ~ 23:00,11:50 ~ 23:00,11:50 ~ 23:00
심스커피(Sim's Coffee),부산광역시 북구 낙동대로1570번길 10,,35.1967661111533,128.98874446034,10:00 ~ 23:00,10:00 ~ 23:00,10:00 ~ 23:00,10:00 ~ 23:00,10:00 ~ 23:00,10:00 ~ 23:00,10:00 ~ 23:00
커피베이화명점,부산광역시 북구 학사로 122-18,,35.2330301703984,129.008853648684,10:00 ~ 22:00,10:00 ~ 22:00,10:00 ~ 22:00,10:00 ~ 22:00,10:00 ~ 22:00,10:00 ~ 22:00,10:00 ~ 22:00
마비스커피,부산광역시 북구 만덕대로 42,,35.2109533366816,129.009654122985,08:00 ~ 21:00,08:00 ~ 21:00,08:00 ~ 21:00,08:00 ~ 21:00,08:00 ~ 21:00,08:00 ~ 21:00,08:00 ~ 21:00
카페 구청,부산광역시 금정구 중앙대로 1777 (부곡동),051 519 4289,35.2420540392893,129.092454461699,08:00 ~ 21:00,08:00 ~ 21:00,08:00 ~ 21:00,08:00 ~ 21:00,08:00 ~ 21:00,08:00 ~ 21:00,08:00 ~ 21:00
모모스,부산광역시 금정구 오시게로 20 (부곡동),051 512 7034,35.2192331522668,129.086467322409,08:00 ~ 18:00,08:00 ~ 18:00,08:00 ~ 18:00,08:00 ~ 18:00,08:00 ~ 18:00,08:00 ~ 18:00,08:00 ~ 18:00
웨이브 717,부산광역시 금정구 중앙대로2001번길 11,051 517 9191,35.2628806020329,129.09106544234,11:00 ~ 20:00,11:00 ~ 20:00,11:00 ~ 20:00,11:00 ~ 20:00,11:00 ~ 20:00,11:00 ~ 20:00,09:00 ~ 15:30
프로메사커피,부산광역시 사하구 제석로 42-1 (당리동),,35.1048947842955,128.973473527095,09:00 ~ 20:45,09:00 ~ 20:45,09:00 ~ 20:45,09:00 ~ 20:45,09:00 ~ 20:45,11:00 ~ 20:45,11:00 ~ 20:45
투썸플레이스 부산아트몰링점,부산광역시 사하구 낙동남로 1413,051 999 7309,35.106754958865,128.966474900321,10:00 ~ 22:00,10:00 ~ 22:00,10:00 ~ 22:00,10:00 ~ 22:00,10:00 ~ 22:00,10:00 ~ 22:00,10:00 ~ 22:00
카페솔,부산광역시 기장군 일광면 일광로 582-23,051 742 1577,35.2940296190863,129.260584940772,09:00 ~ 19:00,09:00 ~ 19:00,09:00 ~ 19:00,09:00 ~ 19:00,09:00 ~ 19:00,09:00 ~ 21:00,09:00 ~ 21:00
심심푸리,부산광역시 기장군 정관읍 정관로 566,051 727 5996,35.3212784409129,129.175576383829,11:00 ~ 23:00,11:00 ~ 23:00,11:00 ~ 23:00,11:00 ~ 23:00,11:00 ~ 23:00,11:00 ~ 23:00,11:00 ~ 23:00
BOMM(봄),부산광역시 금정구 금정로 42,,35.2283993198682,129.086255620119,10:00 ~ 23:00,10:00 ~ 23:00,10:00 ~ 23:00,10:00 ~ 23:00,10:00 ~ 23:00,10:00 ~ 23:00,10:00 ~ 23:00
번아웃커피(부산대점),부산광역시 금정구 부산대학로64번길 43,,35.233424670004,129.084676120898,10:00 ~ 24:00,10:00 ~ 24:00,10:00 ~ 24:00,10:00 ~ 24:00,10:00 ~ 24:00,10:00 ~ 24:00,10:00 ~ 24:00
아이사커피,부산광역시 금정구 부산대학로64번안길 2 (장전동,,35.2358779688958,129.08543867398,08:00 ~ 19:00,08:00 ~ 19:00,08:00 ~ 19:00,08:00 ~ 19:00,08:00 ~ 19:00,10:00 ~ 17:00,
카페윤(CAFE YOON),부산광역시 기장군 기장읍 기장해안로 34-16,070 88884422,35.1819257923912,129.211329849232,10:00 ~ 22:00,10:00 ~ 22:00,10:00 ~ 22:00,10:00 ~ 22:00,10:00 ~ 22:00,10:00 ~ 22:00,10:00 ~ 22:00
팜카페,부산광역시 기장군 기장읍 석산1길 41,070 73715475,35.2032997736769,129.21059729773,10:00 ~ 19:00,10:00 ~ 19:00,,10:00 ~ 19:00,10:00 ~ 19:00,10:00 ~ 19:00,10:00 ~ 19:00
닐리스쉐프 일광점,부산광역시 기장군 일광면 일광로 352,051 728 1601,35.2741044468542,129.254692390287,10:00 ~ 21:00,10:00 ~ 21:00,10:00 ~ 21:00,10:00 ~ 21:00,10:00 ~ 21:00,10:00 ~ 21:00,10:00 ~ 21:00
퐁드르,부산광역시 기장군 장안읍 장안로 31,051 727 6445,35.3435562222358,129.252097975895,11:30 ~ 17:00,,11:30 ~ 17:00,11:30 ~ 17:00,11:30 ~ 17:00,11:30 ~ 17:00,11:30 ~ 17:00
커피생각9월호,부산광역시 금정구 금강로647번길 12 (남산동),,35.2653446082572,129.088091729988,10:00 ~ 23:00,10:00 ~ 23:00,10:00 ~ 23:00,10:00 ~ 23:00,10:00 ~ 23:00,10:00 ~ 23:00,10:00 ~ 23:00
이디야 정관가동점,부산광역시 기장군 정관읍 가동길 32,051 728 9646,35.3281381720284,129.180722522814,09:00 ~ 22:00,09:00 ~ 22:00,09:00 ~ 22:00,09:00 ~ 22:00,09:00 ~ 22:00,09:00 ~ 22:00,09:00 ~ 22:00
카페686,부산광역시 기장군 정관읍 모전2길 19-5,051 727 6883,35.3358448313731,129.169712340303,,09:00 ~ 17:00,09:00 ~ 17:00,09:00 ~ 17:00,09:00 ~ 17:00,09:00 ~ 17:00,09:00 ~ 17:00
설빙부산정관점,부산광역시 기장군 정관읍 정관로 566,051 722 5151,35.3212784409129,129.175576383829,10:30 ~ 22:30,10:30 ~ 22:30,10:30 ~ 22:30,10:30 ~ 22:30,10:30 ~ 22:30,10:30 ~ 22:30,10:30 ~ 22:30
크림(krim),부산광역시 수영구 수영로554번가길 23,051 751 7373,35.1536133715155,129.114930192015,,,,,12:00 ~ 21:00,12:00 ~ 21:00,12:00 ~ 21:00
할리스커피,부산광역시 기장군 장안읍 동해고속도로 25,051 727 3647,35.3775249434148,129.246401604127,08:00 ~ 24:00,08:00 ~ 24:00,08:00 ~ 24:00,08:00 ~ 24:00,08:00 ~ 24:00,08:00 ~ 24:00,08:00 ~ 24:00
엔제리너스,부산광역시 기장군 기장읍 차성동로 110,051 723 5004,35.2474891542905,129.2171510614,10:00 ~ 21:00,10:00 ~ 21:00,10:00 ~ 21:00,10:00 ~ 21:00,10:00 ~ 21:00,10:00 ~ 21:00,10:00 ~ 21:00
죽성드림커피,부산광역시 기장군 기장읍 죽성로 326 (3층 중 1.2.3층),051 721 8585,35.2401628195487,129.248041710582,10:00 ~ 21:00,10:00 ~ 21:00,10:00 ~ 21:00,10:00 ~ 21:00,10:00 ~ 21:00,10:00 ~ 21:00,10:00 ~ 21:00
오븐이야기,부산광역시 기장군 정관읍 정관로 548,070 89277422,35.3224848115304,129.172829068827,10:00 ~ 18:00,10:00 ~ 18:00,10:00 ~ 18:00,10:00 ~ 18:00,10:00 ~ 18:00,11:00 ~ 16:00,
커피전문점 알라딘,부산광역시 기장군 일광면 일광로 617,051 728 5695,35.2972360105999,129.258594360759,11:30 ~ 21:00,11:30 ~ 21:00,11:30 ~ 21:00,11:30 ~ 21:00,11:30 ~ 21:00,11:30 ~ 21:00,11:30 ~ 21:00
이디야커피부산정관점,부산광역시 기장군 정관읍 정관로 383,051 727 4800,35.3351262804165,129.165462464144,09:00 ~ 23:00,09:00 ~ 23:00,09:00 ~ 23:00,09:00 ~ 23:00,09:00 ~ 23:00,09:00 ~ 23:00,09:00 ~ 23:00
오가다 롯데몰동부산점,부산광역시 기장군 기장읍 기장해안로 147,051 901 2850,35.1922144989539,129.212780451607,10:30 ~ 21:30,10:30 ~ 21:30,10:30 ~ 21:30,10:30 ~ 21:30,10:30 ~ 21:30,10:30 ~ 21:30,10:30 ~ 21:30
엔젤리너스 롯데아울렛동부산1층점,부산광역시 기장군 기장읍 기장해안로 147,,35.1922144989539,129.212780451607,10:00 ~ 21:00,10:00 ~ 21:00,10:00 ~ 21:00,10:00 ~ 21:00,10:00 ~ 21:00,10:00 ~ 21:00,10:00 ~ 21:00
투썸플레이스,부산광역시 기장군 장안읍 정관로 1133,051 940 1232,35.3238109755463,129.23496623842,10:00 ~ 21:00,10:00 ~ 21:00,10:00 ~ 21:00,10:00 ~ 21:00,10:00 ~ 21:00,10:00 ~ 21:00,10:00 ~ 21:00
스타벅스부산P.아울렛점,부산광역시 기장군 장안읍 정관로 1133,02  30151178,35.3238109755463,129.23496623842,10:00 ~ 21:00,10:00 ~ 20:30,10:00 ~ 20:30,10:00 ~ 20:30,10:00 ~ 21:00,10:00 ~ 21:00,10:00 ~ 21:00
스타벅스 부산정관점,부산광역시 기장군 정관읍 정관로 579,051 728 2663,35.3213725097261,129.177178104516,07:00 ~ 22:30,07:00 ~ 22:30,07:00 ~ 22:30,07:00 ~ 22:30,07:00 ~ 22:30,07:00 ~ 22:30,07:00 ~ 22:30
엔제리너스 서동점,부산광역시 금정구 서동로 168 (서동,,35.2144415558759,129.104775217186,09:00 ~ 22:00,09:00 ~ 22:00,09:00 ~ 22:00,09:00 ~ 22:00,09:00 ~ 22:00,09:00 ~ 22:00,09:00 ~ 22:00
카페위드,부산광역시 금정구 놀이마당로36번길 12 (청룡동,,35.2770794905404,129.084700253873,09:00 ~ 22:00,09:00 ~ 22:00,09:00 ~ 22:00,09:00 ~ 22:00,09:00 ~ 22:00,09:00 ~ 22:00,09:00 ~ 22:00
이디야 부산금정초교점,부산광역시 금정구 식물원로44번길 40 (장전동),051 581 1192,35.2269392573051,129.083642006454,09:00 ~ 22:00,09:00 ~ 22:00,09:00 ~ 22:00,09:00 ~ 22:00,09:00 ~ 22:00,09:00 ~ 22:00,09:00 ~ 22:00
카페051서동점,부산광역시 금정구 서동로 166-1 (서동),,35.2145297344221,129.104663735637,09:00 ~ 22:00,09:00 ~ 22:00,09:00 ~ 22:00,09:00 ~ 22:00,09:00 ~ 22:00,09:00 ~ 22:00,10:00 ~ 22:00
빅핸즈카페,부산광역시 기장군 기장읍 연화1길 191,051 721 8882,35.2184269221651,129.22749855168,10:00 ~ 21:30,,10:00 ~ 21:30,10:00 ~ 21:30,10:00 ~ 21:30,10:00 ~ 21:30,10:00 ~ 21:30
스타카토로스터스,부산광역시 기장군 기장읍 기장해안로 147,051 901 2719,35.1922144989539,129.212780451607,10:30 ~ 21:00,10:30 ~ 21:00,10:30 ~ 21:00,10:30 ~ 21:00,10:30 ~ 21:00,10:30 ~ 21:00,10:30 ~ 21:00
이디야 부산효림초교점,부산광역시 사하구 장평로 107,,35.0756629975052,128.972696829103,09:00 ~ 21:50,09:00 ~ 21:50,09:00 ~ 21:50,09:00 ~ 21:50,09:00 ~ 21:50,09:00 ~ 21:50,09:00 ~ 21:50
코티조아,부산광역시 사하구 낙동대로234번길 22,,35.1008764406891,128.991343380644,09:00 ~ 20:30,09:00 ~ 20:30,09:00 ~ 20:30,09:00 ~ 20:30,09:00 ~ 20:30,09:00 ~ 20:30,
카페드롭탑 동부산관광단지점,부산광역시 기장군 기장읍 기장해안로 128,,35.1900671980598,129.213648113978,10:00 ~ 22:00,10:00 ~ 22:00,10:00 ~ 22:00,10:00 ~ 22:00,10:00 ~ 22:00,10:00 ~ 22:00,10:00 ~ 22:00
컴포즈커피 정관광장점,부산광역시 기장군 정관읍 정관로 563 (101호),070 41120486,35.3219150269183,129.175634454968,08:00 ~ 22:00,08:00 ~ 22:00,08:00 ~ 22:00,08:00 ~ 22:00,08:00 ~ 22:00,09:00 ~ 22:00,09:00 ~ 22:00
다인,부산광역시 기장군 정관읍 정관로 830,051 343 9999,35.3242273402331,129.202817183443,11:00 ~ 21:00,11:00 ~ 21:00,11:00 ~ 21:00,11:00 ~ 21:00,11:00 ~ 21:00,11:00 ~ 21:00,11:00 ~ 21:00
텐퍼센트커피 대연혁신점,부산광역시 남구 수영로 345,,35.1398875289479,129.103520204194,08:00 ~ 21:00,08:00 ~ 21:00,08:00 ~ 21:00,08:00 ~ 21:00,08:00 ~ 21:00,08:00 ~ 21:00,08:00 ~ 21:00
류빈,부산광역시 금정구 청룡로45번길 63,,35.2726390940143,129.087621442104,12:00 ~ 19:00,12:00 ~ 19:00,12:00 ~ 19:00,12:00 ~ 19:00,12:00 ~ 19:00,12:00 ~ 19:00,12:00 ~ 19:00
씨드(SEED),부산광역시 금정구 구서중앙로15번길 20,051 554 5999,35.2538696284383,129.089057150062,09:00 ~ 21:30,09:00 ~ 21:30,09:00 ~ 21:30,09:00 ~ 21:30,09:00 ~ 21:30,09:00 ~ 21:30,09:00 ~ 21:30
어벤더치커피 부민점,부산광역시 서구 구덕로 220,,35.1041713478887,129.020287668619,08:00 ~ 22:45,08:00 ~ 22:45,08:00 ~ 22:45,08:00 ~ 22:45,08:00 ~ 22:45,08:00 ~ 22:45,08:00 ~ 22:45
컴포즈커피 센텀비스타점,부산광역시 수영구 무학로63번길 142,051 755 9066,35.1674750533115,129.118971576322,08:20 ~ 20:40,08:20 ~ 20:40,08:20 ~ 20:40,08:20 ~ 20:40,08:20 ~ 20:40,09:10 ~ 20:40,09:10 ~ 20:40
까페051 연제브라운스톤점,부산광역시 연제구 연제로8번길 29,051 868 1051,35.1781292696525,129.077732458495,08:00 ~ 18:00,08:00 ~ 18:00,08:00 ~ 18:00,08:00 ~ 18:00,08:00 ~ 18:00,09:00 ~ 18:00,09:00 ~ 18:00
사적공간,부산광역시 수영구 망미번영로70번길 68,051 751 2528,35.1711473192513,129.112401521133,,11:00 ~ 19:00,11:00 ~ 19:00,11:00 ~ 19:00,11:00 ~ 19:00,12:00 ~ 19:00,12:00 ~ 19:00
아마스빈 사상점,부산광역시 사상구 사상로 214,,35.1642080294829,128.983930244983,10:00 ~ 23:00,10:00 ~ 23:00,10:00 ~ 23:00,10:00 ~ 23:00,10:00 ~ 23:00,10:00 ~ 23:00,10:00 ~ 23:00
이디야커피 명지너울공원점,부산광역시 강서구 명지국제6로232번길 20,,35.0957901999967,128.924576130857,10:00 ~ 22:00,10:00 ~ 22:00,10:00 ~ 22:00,10:00 ~ 22:00,10:00 ~ 22:00,10:00 ~ 22:00,10:00 ~ 22:00
헤이유,부산광역시 수영구 수영로554번가길 26,,35.1535334857375,129.114674663197,,12:00 ~ 19:00,12:00 ~ 19:00,12:00 ~ 19:00,12:00 ~ 19:00,12:00 ~ 19:00,12:00 ~ 19:00
카페 페이지. 30(CAFE PAGE. 30),부산광역시 해운대구 대천로103번길 47,,35.1793143508119,129.174046968666,10:00 ~ 19:00,10:00 ~ 19:00,10:00 ~ 19:00,10:00 ~ 19:00,10:00 ~ 19:00,,
컴포즈동의과학대점,부산광역시 부산진구 양지로 18-1,,35.1686290610609,129.069588626252,08:00 ~ 22:00,08:00 ~ 22:00,08:00 ~ 22:00,08:00 ~ 22:00,08:00 ~ 22:00,10:00 ~ 20:00,10:00 ~ 20:00
코넛커피,부산광역시 부산진구 부전로66번길 24,,35.1557843335963,129.05595692825,08:30 ~ 20:00,08:30 ~ 20:00,08:30 ~ 20:00,08:30 ~ 20:00,08:30 ~ 20:00,08:30 ~ 20:00,08:30 ~ 20:00
카페캔버스,부산광역시 사하구 동매로15번길 22,,35.104744374993,128.960202440994,,10:00 ~ 22:00,10:00 ~ 22:00,10:00 ~ 22:00,10:00 ~ 22:00,10:00 ~ 22:00,10:00 ~ 22:00
투썸플레이스 부산초량점,부산광역시 동구 중앙대로 325,051 441 4422,35.1254727055164,129.045022432197,07:30 ~ 23:00,07:30 ~ 23:00,07:30 ~ 23:00,07:30 ~ 23:00,07:30 ~ 23:00,07:30 ~ 23:00,07:30 ~ 23:00
카페테오,부산광역시 금정구 장전로 54,,35.2296013046496,129.083445193272,10:00 ~ 21:00,10:00 ~ 21:00,10:00 ~ 21:00,10:00 ~ 21:00,10:00 ~ 21:00,10:00 ~ 21:00,10:00 ~ 21:00
누누,부산광역시 기장군 장안읍 오리길 321,,35.3504029680287,129.279172772705,,10:00 ~ 14:00,10:00 ~ 14:00,10:00 ~ 14:00,10:00 ~ 14:00,10:00 ~ 18:00,10:00 ~ 18:00
브로쓰마카롱,부산광역시 동래구 명륜로138번길 25,,35.2067210589142,129.083374954998,12:00 ~ 20:00,12:00 ~ 20:00,12:00 ~ 20:00,12:00 ~ 20:00,12:00 ~ 20:00,12:00 ~ 20:00,12:00 ~ 20:00
하이오커피 동아대점,부산광역시 사하구 낙동대로516번길 48,,35.1129030636273,128.966161812051,08:00 ~ 20:00,08:00 ~ 20:00,08:00 ~ 20:00,08:00 ~ 20:00,08:00 ~ 20:00,08:00 ~ 20:00,08:00 ~ 20:00
쉼표하나,부산광역시 부산진구 동천로108번길 36,,35.158165579541,129.064379005788,10:00 ~ 22:00,10:00 ~ 22:00,10:00 ~ 22:00,10:00 ~ 22:00,10:00 ~ 22:00,10:00 ~ 22:00,10:00 ~ 22:00
컴포즈커피 민락점,부산광역시 수영구 광안해변로 311,,35.1573315862525,129.127433756525,07:30 ~ 22:00,07:30 ~ 22:00,07:30 ~ 22:00,07:30 ~ 22:00,07:30 ~ 22:00,08:00 ~ 22:00,08:00 ~ 22:00
메가엠지씨커피 감만점,부산광역시 남구 석포로 24,051 6354113,35.1223233834424,129.083648652768,08:00 ~ 20:45,08:00 ~ 20:45,08:00 ~ 20:45,08:00 ~ 20:45,08:00 ~ 20:45,09:00 ~ 20:45,09:00 ~ 20:45
깡통시장바리스타PTG,부산광역시 중구 중구로33번길 27,,35.1008857751155,129.026380129505,10:00 ~ 21:00,10:00 ~ 21:00,10:00 ~ 21:00,10:00 ~ 21:00,10:00 ~ 21:00,10:00 ~ 21:00,10:00 ~ 21:00
카페누베,부산광역시 금정구 금정로 85-10,,35.2319841552351,129.086366543401,,12:00 ~ 22:00,12:00 ~ 22:00,12:00 ~ 22:00,12:00 ~ 22:00,12:00 ~ 22:00,12:00 ~ 22:00
오루즈(EAU ROUGE),부산광역시 서구 해돋이로 127,,35.0900520107493,129.021533649351,,,12:00 ~ 20:00,12:00 ~ 20:00,12:00 ~ 20:00,12:00 ~ 20:00,12:00 ~ 20:00
할리스커피 금강식물원점,부산광역시 금정구 금샘로 22,051 517 1110,35.2279178073324,129.077993513512,10:00 ~ 23:00,10:00 ~ 23:00,10:00 ~ 23:00,10:00 ~ 23:00,10:00 ~ 23:00,10:00 ~ 23:00,10:00 ~ 23:00
커피 로만 부산대점,부산광역시 금정구 부산대학로 63,,35.2313981574196,129.084389112168,08:00 ~ 20:40,08:00 ~ 20:40,08:00 ~ 20:40,08:00 ~ 08:40,08:00 ~ 20:40,08:00 ~ 20:40,08:00 ~ 20:40
하삼동커피 서동시장점,부산광역시 금정구 서동로 147,,35.2150718742119,129.102688043509,08:00 ~ 21:00,08:00 ~ 21:00,08:00 ~ 21:00,08:00 ~ 21:00,08:00 ~ 21:00,08:00 ~ 21:00,08:00 ~ 21:00
스타벅스 사상주례DT점,부산광역시 사상구 백양대로 520,051 311 3634,35.1548634734354,128.996132709156,07:00 ~ 22:00,07:00 ~ 22:00,07:00 ~ 22:00,07:00 ~ 22:00,07:00 ~ 22:00,07:00 ~ 22:00,07:00 ~ 22:00
카페051동일타워점,부산광역시 동구 조방로 14,051 992 0051,35.1387281351032,129.06345343296,07:30 ~ 22:30,07:30 ~ 22:30,07:30 ~ 22:30,07:30 ~ 22:30,07:30 ~ 22:30,07:30 ~ 22:30,07:30 ~ 22:30
메가엠지씨커피(수영구청점),부산광역시 수영구 광남로48번길 5,,35.1467979273824,129.112334356401,00:00 ~ 23:59,00:00 ~ 23:59,00:00 ~ 23:59,00:00 ~ 23:59,00:00 ~ 23:59,00:00 ~ 23:59,00:00 ~ 23:59
컴포즈(산성터널점),부산광역시 금정구 수림로 55,,35.2398141743767,129.086311761773,07:30 ~ 22:00,07:30 ~ 22:00,07:30 ~ 22:00,07:30 ~ 22:00,07:30 ~ 22:00,07:30 ~ 22:00,07:30 ~ 22:00
커피프론트,부산광역시 해운대구 APEC로 17,,35.1659324519479,129.132411521392,08:00 ~ 19:00,08:00 ~ 19:00,08:00 ~ 19:00,08:00 ~ 19:00,08:00 ~ 19:00,09:00 ~ 19:00,09:00 ~ 19:00
유정1995,부산광역시 기장군 정관읍 병산로 303-1,051 728 4642,35.3527848063937,129.18697038874,10:30 ~ 21:30,10:30 ~ 21:30,10:30 ~ 21:30,10:30 ~ 21:30,10:30 ~ 21:30,10:30 ~ 21:30,10:30 ~ 21:30
컴포즈커피 장림역점,부산광역시 사하구 장림번영로 104,,35.0802933564127,128.976865007003,08:00 ~ 22:00,08:00 ~ 22:00,08:00 ~ 22:00,08:00 ~ 22:00,08:00 ~ 22:00,08:00 ~ 22:00,08:00 ~ 22:00
고재,부산광역시 해운대구 우동1로38번길 14-7,,35.1652787032013,129.158632540574,11:00 ~ 20:00,11:00 ~ 20:00,11:00 ~ 20:00,11:00 ~ 20:00,11:00 ~ 20:00,11:00 ~ 20:00,11:00 ~ 20:00
커피야,부산광역시 부산진구 범양로 127,,35.1744704899799,129.065634277705,10:00 ~ 21:00,10:00 ~ 21:00,10:00 ~ 21:00,10:00 ~ 21:00,10:00 ~ 21:00,10:00 ~ 21:00,10:00 ~ 21:00
베러먼데이 파밀리에점,부산광역시 해운대구 해운대로 789,,35.1693939115812,129.174894787294,07:30 ~ 22:00,07:30 ~ 22:00,07:30 ~ 22:00,07:30 ~ 22:00,07:30 ~ 22:00,08:00 ~ 22:00,08:00 ~ 22:00
투썸플레이스 부산하단점,부산광역시 사하구 낙동대로 464,02  55797508,35.1061664276204,128.968853934541,08:00 ~ 23:00,08:00 ~ 23:00,08:00 ~ 23:00,08:00 ~ 23:00,08:00 ~ 23:00,08:00 ~ 23:00,08:00 ~ 23:00
에클레시아,부산광역시 부산진구 동평로 63,,35.1652809124969,129.036440823561,11:00 ~ 19:30,11:00 ~ 19:30,11:00 ~ 19:30,11:00 ~ 19:30,11:00 ~ 19:30,11:00 ~ 16:00,
팔공티양정점,부산광역시 부산진구 양지로 3,,35.1701176305469,129.069549647128,11:00 ~ 21:00,11:00 ~ 21:00,11:00 ~ 21:00,11:00 ~ 21:00,11:00 ~ 21:00,11:00 ~ 21:00,11:30 ~ 20:00
고품격 커피공장 법원점,부산광역시 연제구 법원남로15번길 12,051 505 7436,35.1904461034914,129.0736580032,08:00 ~ 20:00,08:00 ~ 20:00,08:00 ~ 20:00,08:00 ~ 20:00,08:00 ~ 20:00,09:00 ~ 18:00,10:00 ~ 17:00
소풍경만덕점,부산광역시 북구 상리로18번가길 3,051 952 5677,35.2080434015521,129.036003491609,10:00 ~ 20:00,10:00 ~ 20:00,10:00 ~ 20:00,10:00 ~ 20:00,10:00 ~ 20:00,10:00 ~ 20:00,10:00 ~ 20:00
이디야 아시아드점,부산광역시 연제구 종합운동장로 28,051 501 2356,35.1930950308217,129.064775944024,10:00 ~ 22:00,10:00 ~ 22:00,10:00 ~ 22:00,10:00 ~ 22:00,10:00 ~ 22:00,,
클라,부산광역시 동구 중앙대로 461,,35.1349361352473,129.054630676922,09:00 ~ 22:00,09:00 ~ 22:00,09:00 ~ 22:00,09:00 ~ 22:00,09:00 ~ 22:00,09:00 ~ 22:00,
예퓨리네,부산광역시 수영구 망미번영로70번길 149,,35.1691406706989,129.115852527087,12:00 ~ 19:00,12:00 ~ 19:00,12:00 ~ 19:00,12:00 ~ 19:00,12:00 ~ 19:00,,
주식회사 히어로키즈파크 명지지점,부산광역시 강서구 명지국제8로10번길 51,054 624 1009,35.0939053061223,128.90157980646,11:00 ~ 20:00,11:00 ~ 20:00,11:00 ~ 20:00,11:00 ~ 20:00,11:00 ~ 20:00,10:30 ~ 20:00,10:30 ~ 20:00
하삼동커피 다대낫개점,부산광역시 사하구 다송로72번길 63,,35.0600603425673,128.980910412084,09:00 ~ 23:00,09:00 ~ 23:00,09:00 ~ 23:00,09:00 ~ 23:00,09:00 ~ 23:00,09:00 ~ 23:00,09:00 ~ 20:00
더벤티 수영구청점,부산광역시 수영구 광남로 45,,35.1467942882221,129.11164383075,08:00 ~ 22:00,08:00 ~ 22:00,08:00 ~ 22:00,08:00 ~ 22:00,08:00 ~ 01:00,09:00 ~ 01:00,09:00 ~ 01:00
카페투톤(CAFE TWOTONE),부산광역시 동구 초량상로65번길 1,,35.1176325679394,129.037568776789,11:00 ~ 22:30,11:00 ~ 22:30,11:00 ~ 22:30,11:00 ~ 22:30,11:00 ~ 22:30,11:00 ~ 22:30,11:00 ~ 22:30
제우스커피,부산광역시 사상구 대동로 102,051 322 9163,35.1385340735766,128.9790517429,10:00 ~ 22:00,10:00 ~ 22:00,10:00 ~ 22:00,10:00 ~ 22:00,10:00 ~ 22:00,10:00 ~ 22:00,10:00 ~ 22:00
트위스티 베어,부산광역시 수영구 수영로618번길 32-7,,35.1602077778659,129.115587717357,,,12:00 ~ 20:00,12:00 ~ 20:00,12:00 ~ 20:00,12:00 ~ 20:00,12:00 ~ 20:00
우주라이크,부산광역시 사하구 낙동대로 511,,35.1098036503399,128.965781912383,10:00 ~ 22:00,10:00 ~ 22:00,10:00 ~ 22:00,10:00 ~ 22:00,10:00 ~ 22:00,10:00 ~ 22:00,10:00 ~ 22:00
해무꽃,부산광역시 영도구 절영로 45-1,,35.0903210933566,129.038869384194,08:00 ~ 21:00,08:00 ~ 21:00,08:00 ~ 21:00,08:00 ~ 21:00,08:00 ~ 21:00,08:00 ~ 21:00,08:00 ~ 21:00
두두,부산광역시 부산진구 신천대로162번길 19,,35.1561146981301,129.052030392737,,,,,,10:30 ~ 18:00,
고품격커피공장,부산광역시 부산진구 중앙대로 681,,35.1535137256607,129.058892629376,07:30 ~ 23:00,07:30 ~ 23:00,07:30 ~ 10:00,07:30 ~ 23:00,09:00 ~ 23:00,07:30 ~ 23:00,09:00 ~ 22:00
컴포즈커피기장시장점,부산광역시 기장군 기장읍 읍내로 106,051 724 4513,35.2449368853111,129.215829658502,08:00 ~ 22:00,08:00 ~ 22:00,08:00 ~ 22:00,08:00 ~ 22:00,08:00 ~ 22:00,08:00 ~ 22:00,08:00 ~ 22:00
45번길카페,부산광역시 서구 대영로45번길 78,,35.1128320870575,129.014832725664,11:00 ~ 21:00,11:00 ~ 21:00,11:00 ~ 21:00,11:00 ~ 21:00,11:00 ~ 21:00,11:00 ~ 18:00,11:00 ~ 18:00
이디야커피 큰솔2병원점,부산광역시 사상구 학장로 189,051 325 2609,35.1436526094493,128.987213806495,08:00 ~ 19:45,08:00 ~ 19:45,08:00 ~ 19:45,08:00 ~ 19:45,08:00 ~ 19:45,08:00 ~ 19:45,08:00 ~ 19:45
영커피,부산광역시 해운대구 재반로165번길 121,051 7840199,35.1912631605569,129.124983033587,09:00 ~ 23:00,08:30 ~ 23:00,08:30 ~ 23:00,08:30 ~ 24:00,09:00 ~ 22:00,14:00 ~ 23:00,09:00 ~ 24:00
고더커피 센텀점,부산광역시 해운대구 센텀6로 21,,35.1735919138624,129.129217028873,08:45 ~ 19:30,08:45 ~ 19:30,08:45 ~ 19:30,08:45 ~ 19:30,08:45 ~ 19:30,08:45 ~ 17:00,08:45 ~ 17:00
커피팜(COFFEE FARM),부산광역시 강서구 녹산산단335로 24-8,,35.0906958438217,128.854942556515,11:00 ~ 21:00,11:00 ~ 21:00,11:00 ~ 21:00,,11:00 ~ 21:00,11:00 ~ 21:00,11:00 ~ 21:00
텐퍼센트커피 금정구청점,부산광역시 금정구 중앙대로1793번길 60,,35.2422051704909,129.091792146076,08:00 ~ 20:00,08:00 ~ 20:00,08:00 ~ 20:00,08:00 ~ 20:00,08:00 ~ 20:00,08:00 ~ 20:00,08:00 ~ 20:00
테코커피,부산광역시 동구 중앙대로214번길 7-5,,35.1163869505349,129.041456771126,08:00 ~ 19:00,08:00 ~ 19:00,08:00 ~ 19:00,08:00 ~ 19:00,08:00 ~ 19:00,08:00 ~ 19:00,
하삼동커피 두실점,부산광역시 금정구 중앙대로1945번길 23-29,051 582 1311,35.2565649760576,129.090015457748,07:30 ~ 22:00,07:30 ~ 22:00,07:30 ~ 22:00,07:30 ~ 22:00,07:30 ~ 22:00,08:00 ~ 22:00,08:00 ~ 22:00
CAFE 천리향,부산광역시 사상구 백양대로950번나길 14,,35.1909914180395,128.992996166518,09:00 ~ 01:00,09:00 ~ 01:00,09:00 ~ 01:00,09:00 ~ 01:00,09:00 ~ 01:00,09:00 ~ 01:00,09:00 ~ 01:00
그라운드27(ground27),부산광역시 중구 광복로 91,,35.0988865001803,129.034734242582,11:00 ~ 22:00,11:00 ~ 22:00,11:00 ~ 22:00,11:00 ~ 22:00,11:00 ~ 22:00,11:00 ~ 22:00,11:00 ~ 22:00
댄싱컵 부산중앙동점,부산광역시 중구 충장대로9번길 13,,35.1065793163835,129.037328297447,07:00 ~ 19:00,07:00 ~ 19:00,07:00 ~ 19:00,07:00 ~ 19:00,07:00 ~ 19:00,08:00 ~ 17:00,08:00 ~ 17:00
더벤티 부산기장점,부산광역시 기장군 기장읍 차성로344번길 10,051 724 4288,35.2479627354876,129.214487402698,09:00 ~ 22:00,09:00 ~ 22:00,09:00 ~ 22:00,09:00 ~ 22:00,09:00 ~ 22:00,09:00 ~ 22:00,09:00 ~ 22:00
플루크 1호점,부산광역시 강서구 명지국제8로 264,,35.0975766404578,128.921469126572,11:00 ~ 21:00,11:00 ~ 21:00,11:00 ~ 21:00,11:00 ~ 21:00,11:00 ~ 21:00,11:00 ~ 21:00,11:00 ~ 21:00
카페두(DOO),부산광역시 동래구 충렬대로 367,,35.198283781661,129.099161850047,08:00 ~ 23:00,08:00 ~ 23:00,08:00 ~ 23:00,08:00 ~ 23:00,08:00 ~ 23:00,08:00 ~ 23:00,09:00 ~ 22:00
카페 엘피조,부산광역시 동래구 동래로 138,,35.2050372792273,129.086109920559,11:00 ~ 21:00,11:00 ~ 18:00,11:00 ~ 21:00,11:00 ~ 21:00,11:00 ~ 21:00,11:00 ~ 21:00,11:00 ~ 21:00
메가엠지씨커피 문현점,부산광역시 남구 고동골로 29,050362215128,35.1389910752825,129.070457481676,07:30 ~ 22:50,07:30 ~ 22:50,07:30 ~ 22:50,07:30 ~ 22:50,07:30 ~ 22:50,07:30 ~ 22:50,07:30 ~ 22:50
컴포즈커피 망미역점,부산광역시 수영구 연수로370번길 1,,35.1703463944875,129.110493606563,09:00 ~ 21:30,09:00 ~ 21:30,09:00 ~ 21:30,09:00 ~ 21:30,09:00 ~ 21:30,09:00 ~ 21:30,09:00 ~ 21:30
하삼동커피 대연점,부산광역시 남구 수영로250번길 22,051 6226766,35.134556206497,129.094699641845,08:00 ~ 22:00,08:00 ~ 22:00,08:00 ~ 22:00,08:00 ~ 22:00,08:00 ~ 22:00,09:00 ~ 22:00,09:00 ~ 22:00
텐퍼센트커피 부전역점,부산광역시 부산진구 중앙대로 802,,35.1631975375537,129.063894634575,07:30 ~ 22:30,07:30 ~ 22:30,07:30 ~ 22:30,07:30 ~ 22:30,07:30 ~ 22:30,07:30 ~ 22:30,09:00 ~ 22:00
부산수영지역자활센터 카페수3호점,부산광역시 수영구 수영로521번길 77,051 757 4034,35.1529382417657,129.10745948362,,08:00 ~ 19:00,08:00 ~ 19:00,08:00 ~ 19:00,08:00 ~ 19:00,08:00 ~ 19:00,08:00 ~ 19:00
이디야 동래고교점,부산광역시 동래구 충렬대로 276,,35.2005656365371,129.089173974321,08:30 ~ 21:00,08:30 ~ 21:00,08:30 ~ 21:00,08:30 ~ 21:00,08:30 ~ 21:00,09:00 ~ 21:00,09:00 ~ 21:00
컴포즈커피 해운대 문화회관점,부산광역시 해운대구 좌동로 89,,35.172518085434,129.174698055797,08:45 ~ 21:45,08:45 ~ 21:45,08:45 ~ 21:45,08:45 ~ 21:45,08:45 ~ 21:45,08:45 ~ 21:45,08:45 ~ 21:45
베러먼데이범내골점,부산광역시 부산진구 중앙대로 613-2,,35.1474924600307,129.05857764128,07:30 ~ 19:30,07:30 ~ 19:30,07:30 ~ 19:30,07:30 ~ 19:30,07:30 ~ 19:30,07:30 ~ 17:30,08:40 ~ 15:30
윤미쌤의작은빵집,부산광역시 해운대구 대천로 35,,35.1700062943164,129.168138360044,11:00 ~ 20:00,11:00 ~ 20:00,11:00 ~ 20:00,11:00 ~ 20:00,11:00 ~ 20:00,,
카페051 동백제니스점,부산광역시 해운대구 해운대로 540,,35.1597295871407,129.150704866293,09:00 ~ 21:00,09:00 ~ 21:00,09:00 ~ 21:00,09:00 ~ 21:00,09:00 ~ 21:00,09:00 ~ 21:00,09:00 ~ 21:00
카페051(CAFE051) 정관모전점,부산광역시 기장군 정관읍 정관로 391,,35.3344934620479,129.165817372458,08:30 ~ 22:00,08:30 ~ 22:00,08:30 ~ 22:00,08:30 ~ 22:00,08:30 ~ 22:00,08:30 ~ 22:00,08:30 ~ 22:00
할리스 부산동의대점,부산광역시 부산진구 엄광로 176,,35.1443184545334,129.036309884005,08:00 ~ 22:00,08:00 ~ 22:00,08:00 ~ 22:00,08:00 ~ 22:00,08:00 ~ 22:00,09:00 ~ 21:00,09:00 ~ 21:00
카페 이다음,부산광역시 사하구 윤공단로17번길 103,,35.0563281751052,128.966763445322,12:00 ~ 22:00,,12:00 ~ 22:00,12:00 ~ 22:00,12:00 ~ 22:00,12:00 ~ 22:00,12:00 ~ 22:00
카페이나뜨,부산광역시 강서구 신호산단4로64번길 18-7,,35.084047201006,128.879485522738,10:00 ~ 22:00,10:00 ~ 22:00,10:00 ~ 22:00,10:00 ~ 22:00,10:00 ~ 22:00,10:00 ~ 22:00,
하이오커피 명지휴포레점,부산광역시 강서구 명지국제5로 126,,35.1051242750071,128.921324884343,08:00 ~ 22:00,08:00 ~ 22:00,08:00 ~ 22:00,08:00 ~ 22:00,08:00 ~ 22:00,08:00 ~ 22:00,08:00 ~ 22:00
국립부산과학관,부산광역시 기장군 기장읍 동부산관광6로 59,,35.2044215776897,129.212599859203,,,,,,,
노비커피(Nobby coffee),부산광역시 수영구 광남로 122,,35.1523637346758,129.116560781443,08:00 ~ 22:30,08:00 ~ 22:30,08:00 ~ 22:30,08:00 ~ 22:30,08:00 ~ 22:30,08:00 ~ 22:30,08:00 ~ 22:30
카페마타마타 안락점,부산광역시 동래구 삼어로 9,,35.2005767533328,129.11375378447,08:00 ~ 22:00,08:00 ~ 22:00,08:00 ~ 22:00,08:00 ~ 22:00,08:00 ~ 22:00,08:30 ~ 22:00,08:30 ~ 22:00
커피스토어 주례럭키점,부산광역시 사상구 동주로 14,,35.147040632689,129.000126647184,08:00 ~ 21:30,08:00 ~ 21:30,08:00 ~ 21:30,08:00 ~ 21:30,08:00 ~ 21:30,08:00 ~ 21:30,08:00 ~ 21:30
자두커피,부산광역시 금정구 두실로37번길 43,,35.2590097757624,129.08698343218,12:00 ~ 21:00,12:00 ~ 21:00,12:00 ~ 21:00,12:00 ~ 21:00,12:00 ~ 21:00,12:00 ~ 21:00,12:00 ~ 21:00
디오(D.O),부산광역시 부산진구 가야대로 535,,35.1539935161741,129.030645361914,11:00 ~ 21:00,11:00 ~ 21:00,11:00 ~ 21:00,11:00 ~ 21:00,11:00 ~ 21:00,11:00 ~ 21:00,11:00 ~ 21:00
컴포즈커피 범방점,부산광역시 강서구 범방3로60번길 3,,35.1486054847866,128.881009487479,07:00 ~ 20:00,07:00 ~ 20:00,07:00 ~ 20:00,07:00 ~ 20:00,07:00 ~ 20:00,08:00 ~ 18:00,
아덴블랑제리 일광점,부산광역시 기장군 일광읍 해빛3로 105-9,,35.2667672317749,129.2215209656,08:00 ~ 21:00,08:00 ~ 21:00,08:00 ~ 21:00,08:00 ~ 21:00,08:00 ~ 21:00,08:00 ~ 21:00,08:00 ~ 21:00
크리스피크림도넛 부산사상역점,부산광역시 사상구 사상로 지하 203,051 313 1937,35.1624645755924,128.984636635373,00:00 ~ 24:00,00:00 ~ 24:00,00:00 ~ 24:00,00:00 ~ 24:00,00:00 ~ 24:00,00:00 ~ 24:00,00:00 ~ 24:00
달리는커피 사상구청점,부산광역시 사상구 학감대로 277,,35.1556063669526,128.990665079007,08:00 ~ 20:00,07:00 ~ 20:00,08:00 ~ 20:00,07:00 ~ 20:00,07:00 ~ 20:00,08:00 ~ 14:00,
브레드 밋 파리,부산광역시 영도구 청학로37번길 22,,35.0923051642487,129.058990829961,11:00 ~ 20:00,11:00 ~ 20:00,11:00 ~ 20:00,11:00 ~ 20:00,11:00 ~ 20:00,11:00 ~ 20:00,11:00 ~ 20:00
신기커피,부산광역시 수영구 남천바다로15번길 74,,35.1525086126981,129.114085809298,08:00 ~ 19:00,08:00 ~ 19:00,08:00 ~ 19:00,08:00 ~ 19:00,08:00 ~ 19:00,08:00 ~ 19:00,08:00 ~ 19:00
더리터 문현점,부산광역시 남구 문현로 65,051 633 0212,35.1435338639812,129.076120639803,07:30 ~ 22:00,07:30 ~ 22:00,07:30 ~ 22:00,07:30 ~ 22:00,07:30 ~ 22:00,07:30 ~ 22:00,07:30 ~ 22:00
커피볶는시골커피(용호자이점),부산광역시 남구 신선로 566,,35.1326695529587,129.10968594313,08:00 ~ 22:00,08:00 ~ 22:00,08:00 ~ 22:00,08:00 ~ 22:00,08:00 ~ 22:00,08:00 ~ 22:00,08:00 ~ 22:00
카페베일(CAFE VEIL),부산광역시 남구 진남로46번길 36,070 88335009,35.139653413192,129.09039159854,10:00 ~ 23:00,10:00 ~ 23:00,10:00 ~ 23:00,10:00 ~ 23:00,10:00 ~ 23:00,10:00 ~ 23:00,10:00 ~ 23:00
오늘 : 정든 (곳),부산광역시 수영구 수영로611번길 19-4,,35.1605774908645,129.112507660332,08:00 ~ 21:00,08:00 ~ 21:00,08:00 ~ 21:00,08:00 ~ 21:00,08:00 ~ 21:00,08:00 ~ 20:00,08:00 ~ 20:00
아덴블랑제리 서동점,부산광역시 금정구 서동로 159-1,,35.2149848627594,129.103821305362,08:00 ~ 21:00,08:00 ~ 21:00,08:00 ~ 21:00,08:00 ~ 21:00,08:00 ~ 21:00,08:00 ~ 21:00,08:00 ~ 21:00
빡벳커피 괘법점,부산광역시 사상구 운산로 22,,35.1690247891268,128.979245181412,07:00 ~ 22:30,07:00 ~ 22:30,07:00 ~ 22:30,07:00 ~ 22:30,07:00 ~ 22:30,07:00 ~ 22:30,07:00 ~ 22:30
투썸플레이스 해운대팔레드시즈점,부산광역시 해운대구 해운대해변로298번길 24,,35.160201591128,129.166579258799,08:00 ~ 23:00,08:00 ~ 23:00,08:00 ~ 23:00,08:00 ~ 23:00,08:00 ~ 23:00,08:00 ~ 23:00,08:00 ~ 23:00
빽다방 부산광복로점,부산광역시 중구 남포길 25-6,,35.0988635909177,129.031662767319,10:00 ~ 18:00,10:00 ~ 18:00,10:00 ~ 18:00,10:00 ~ 18:00,10:00 ~ 18:00,10:00 ~ 20:00,10:00 ~ 20:00
베러먼데이 메리놀병원점,부산광역시 중구 중구로 121,051 441 8182,35.1076506151841,129.032988169522,07:00 ~ 19:00,07:00 ~ 19:00,07:00 ~ 19:00,07:00 ~ 19:00,07:00 ~ 19:00,07:00 ~ 19:00,07:00 ~ 19:00
여여해,부산광역시 중구 광복로 88,07030006982,35.098391287837,129.034547369149,11:00 ~ 22:00,11:00 ~ 22:00,11:00 ~ 22:00,11:00 ~ 22:00,11:00 ~ 22:00,11:00 ~ 22:00,11:00 ~ 22:00
스트리트 커피(street coffee),부산광역시 중구 중앙대로116번길 12,,35.1074730801187,129.037827911998,08:30 ~ 22:00,08:30 ~ 22:00,08:30 ~ 22:00,08:30 ~ 22:00,08:30 ~ 22:00,09:30 ~ 22:00,
아덴블랑제리 부산중앙동점,부산광역시 중구 해관로 61-2,051 442 1171,35.1044805641777,129.03536600805,08:00 ~ 21:00,08:00 ~ 21:00,08:00 ~ 21:00,08:00 ~ 21:00,08:00 ~ 21:00,08:00 ~ 21:00,08:00 ~ 21:00
공차부산광복점,부산광역시 중구 광복로 80,051 2447758,35.0983821563382,129.033523549683,09:00 ~ 23:00,09:00 ~ 23:00,09:00 ~ 23:00,09:00 ~ 23:00,09:00 ~ 23:00,09:00 ~ 23:00,09:00 ~ 23:00
일레븐(Eleven),부산광역시 중구 중앙대로 75,,35.1043685119334,129.036001217697,00:00 ~ 24:00,00:00 ~ 24:00,00:00 ~ 24:00,00:00 ~ 24:00,00:00 ~ 24:00,00:00 ~ 24:00,00:00 ~ 24:00
카페 파스쿠치,부산광역시 중구 충장대로9번길 66 (중앙동4가),051 660 3636,35.1109146074151,129.039448639821,08:00 ~ 21:00,08:00 ~ 21:00,08:00 ~ 21:00,08:00 ~ 21:00,08:00 ~ 21:00,10:00 ~ 18:00,10:00 ~ 18:00
인앤빈,부산광역시 중구 대청로 61-3,,35.1033825566958,129.026488877115,11:00 ~ 19:00,,11:00 ~ 19:00,11:00 ~ 19:00,11:00 ~ 19:00,11:00 ~ 19:00,11:00 ~ 19:00
할리스 비프광장점,부산광역시 중구 비프광장로 31-1,051 2426311,35.0989912152699,129.028573640049,10:00 ~ 23:00,10:00 ~ 23:00,10:00 ~ 23:00,10:00 ~ 23:00,10:00 ~ 23:00,10:00 ~ 23:00,10:00 ~ 23:00
해든카페,부산광역시 중구 충장대로9번길 49 (중앙동4가),051 4423279,35.1097034824091,129.038417311365,07:00 ~ 20:00,07:00 ~ 20:00,07:00 ~ 20:00,07:00 ~ 20:00,07:00 ~ 20:00,09:00 ~ 15:30,
언니네골목다방,부산광역시 중구 충장대로5번길 42,070 88054065,35.1089133580187,129.037794361116,08:00 ~ 19:00,08:00 ~ 19:00,08:00 ~ 19:00,08:00 ~ 19:00,08:00 ~ 19:00,08:00 ~ 19:00,08:00 ~ 19:00
미주스(ME주스),부산광역시 중구 동광길 28,051 245 3373,35.1039706628884,129.034551284975,,,09:00 ~ 15:00,09:00 ~ 15:00,09:00 ~ 15:00,09:00 ~ 15:00,
이디야커피동광동점,부산광역시 중구 해관로 14,,35.1000807610049,129.035918687143,09:00 ~ 21:30,09:00 ~ 21:30,09:00 ~ 21:30,09:00 ~ 21:30,09:00 ~ 21:30,10:00 ~ 21:30,10:00 ~ 21:30
카페앳홈(cafe at home),부산광역시 중구 중앙대로 42,,35.1013800422389,129.036784052824,07:30 ~ 20:30,07:30 ~ 20:30,07:30 ~ 20:30,07:30 ~ 20:30,07:30 ~ 20:30,10:00 ~ 18:00,07:30 ~ 20:30
커먼피플,부산광역시 중구 중앙대로 21,,35.0995101707339,129.036142003059,08:00 ~ 18:00,08:00 ~ 18:00,08:00 ~ 18:00,08:00 ~ 18:00,08:00 ~ 18:00,08:00 ~ 18:00,
(주)커피빈코리아 부산광복동점,부산광역시 중구 광복로 35,051 2439105,35.0994694313044,129.028995810999,10:00 ~ 21:00,10:00 ~ 21:00,10:00 ~ 21:00,10:00 ~ 21:00,10:00 ~ 22:00,09:00 ~ 22:00,09:00 ~ 21:00
와플칸,부산광역시 중구 광복로55번길 1-1,070 77739797,35.0993938994601,129.03102492236,11:00 ~ 22:30,11:00 ~ 22:30,11:00 ~ 22:30,11:00 ~ 22:30,11:00 ~ 22:30,11:00 ~ 22:30,11:00 ~ 22:30
메가엠지씨커피 부산광복2호점,부산광역시 중구 광복중앙로 33,,35.1023956603615,129.030560224647,08:00 ~ 23:00,08:00 ~ 23:00,08:00 ~ 23:00,08:00 ~ 23:00,08:00 ~ 23:00,08:00 ~ 23:00,08:00 ~ 23:00
미니카페,부산광역시 중구 중앙대로 지하 17 (중앙동6가,,35.1004723724973,129.036559265636,10:00 ~ 21:00,10:00 ~ 21:00,10:00 ~ 21:00,10:00 ~ 21:00,10:00 ~ 21:00,10:30 ~ 22:00,10:30 ~ 22:00
인비토(Invito),부산광역시 중구 광복로35번길 22-1,,35.1012662695511,129.02891600173,10:00 ~ 22:00,10:00 ~ 22:00,10:00 ~ 22:00,10:00 ~ 22:00,10:00 ~ 22:00,11:00 ~ 22:00,11:00 ~ 22:00
드롭탑남포점,부산광역시 중구 중구로 16-1,,35.0991937500271,129.028108141217,08:30 ~ 18:00,08:30 ~ 18:00,08:30 ~ 18:00,08:30 ~ 18:00,08:30 ~ 18:00,10:30 ~ 17:00,
더리터,부산광역시 중구 부평2길 10-1,,35.0998953877584,129.026493007648,12:00 ~ 23:10,12:00 ~ 23:10,12:00 ~ 23:10,12:00 ~ 23:10,12:00 ~ 23:10,11:00 ~ 00:50,11:00 ~ 23:10
엔제리너스 부산남포점,부산광역시 중구 비프광장로 17,051 254 1245,35.0987495865061,129.027104679529,08:00 ~ 02:00,08:00 ~ 02:00,08:00 ~ 02:00,08:00 ~ 02:00,00:00 ~ 24:00,00:00 ~ 24:00,08:00 ~ 02:00
게네랄파우제,부산광역시 중구 광복로49번길 31,051 248 0316,35.1019273130682,129.030200229058,11:00 ~ 17:00,11:00 ~ 03:00,11:00 ~ 03:00,11:00 ~ 03:00,11:00 ~ 03:00,17:00 ~ 03:00,
스타벅스커피부산중앙역점,부산광역시 중구 중앙대로81번길 2,051 468 9807,35.1051483460321,129.035917866365,08:00 ~ 21:00,07:00 ~ 22:00,07:00 ~ 22:00,07:00 ~ 22:00,07:00 ~ 22:00,07:00 ~ 21:00,08:00 ~ 21:00
카페브릿지,부산광역시 중구 광복로35번길 23,051 248 0316,35.1014339547363,129.028745148417,09:00 ~ 21:00,09:00 ~ 21:00,09:00 ~ 21:00,09:00 ~ 21:00,09:00 ~ 21:00,09:00 ~ 21:00,09:00 ~ 21:00
이디야 커피 광복로점,부산광역시 중구 구덕로22번길 8-1,051 243 4281,35.0982883905378,129.033510036059,11:00 ~ 22:45,11:00 ~ 22:45,11:00 ~ 22:45,11:00 ~ 22:45,11:00 ~ 22:45,10:00 ~ 22:45,10:00 ~ 22:45
공차,부산광역시 중구 중앙대로 2,,35.0979848964696,129.036632251021,09:00 ~ 23:00,09:00 ~ 23:00,09:00 ~ 23:00,09:00 ~ 23:00,09:00 ~ 23:00,09:00 ~ 23:00,09:00 ~ 23:00
카페드파리,부산광역시 중구 중앙대로 2,052 211 2142,35.0979848964696,129.036632251021,10:30 ~ 22:00,10:30 ~ 22:00,10:30 ~ 22:00,10:30 ~ 22:00,10:30 ~ 22:00,10:30 ~ 22:00,10:30 ~ 22:00
히엠스(Hiems),부산광역시 중구 대청로 131,051 917 2298,35.1029551002711,129.034225579377,07:30 ~ 18:30,07:30 ~ 18:30,07:30 ~ 18:30,07:30 ~ 18:30,07:30 ~ 18:30,07:30 ~ 15:00,
이디야 커피 광복로점,부산광역시 중구 구덕로22번길 8-1,051 243 4282,35.0982883905378,129.033510036059,11:00 ~ 22:45,11:00 ~ 22:45,11:00 ~ 22:45,11:00 ~ 22:45,11:00 ~ 22:45,10:00 ~ 22:45,10:00 ~ 22:45
더벤티(THE VENTI),부산광역시 중구 광복중앙로 3-1,,35.0996252034012,129.031058842125,09:00 ~ 22:00,09:00 ~ 22:00,09:00 ~ 22:00,09:00 ~ 22:00,09:00 ~ 22:00,09:00 ~ 22:00,09:00 ~ 22:00
스타벅스 자갈치역점,부산광역시 중구 구덕로 54-1,051 30151100,35.0983988855193,129.029692425997,08:00 ~ 22:00,08:00 ~ 22:00,08:00 ~ 22:00,08:00 ~ 22:00,08:00 ~ 22:00,08:00 ~ 22:00,08:00 ~ 22:00
그린노마드,부산광역시 수영구 좌수영로 161-10,,35.1783749286148,129.116770080144,12:00 ~ 23:00,12:00 ~ 23:00,12:00 ~ 23:00,12:00 ~ 23:00,12:00 ~ 23:00,12:00 ~ 23:00,12:00 ~ 23:00
부산수영지역자활센터 카페수,부산광역시 수영구 남천동로 100,051 757 8789,35.145370159138,129.112369419599,,08:00 ~ 19:00,08:00 ~ 19:00,08:00 ~ 19:00,08:00 ~ 19:00,08:00 ~ 19:00,08:00 ~ 19:00
커피 클라우드,부산광역시 수영구 망미로22번길 60,,35.1709891476532,129.101496160146,09:00 ~ 21:00,09:00 ~ 21:00,09:00 ~ 21:00,09:00 ~ 21:00,09:00 ~ 21:00,09:00 ~ 21:00,09:00 ~ 21:00
카페오뜨,부산광역시 수영구 광안해변로 209,,35.1527665258643,129.117582855165,10:00 ~ 24:00,10:00 ~ 24:00,10:00 ~ 24:00,10:00 ~ 24:00,10:00 ~ 24:00,10:00 ~ 24:00,10:00 ~ 24:00
카페051 남천점,부산광역시 수영구 남천동로10번길 10,051 624 0510,35.1425918537879,129.109300585468,07:30 ~ 22:00,07:30 ~ 22:00,07:30 ~ 22:00,07:30 ~ 22:00,07:30 ~ 22:00,08:00 ~ 22:00,08:00 ~ 22:00
카페 (Cafe) 051 시청점,부산광역시 연제구 시청로 12,051 867 0051,35.1813267308598,129.076220783681,07:00 ~ 22:00,07:00 ~ 22:00,07:00 ~ 22:00,07:00 ~ 22:00,07:00 ~ 22:00,08:00 ~ 22:00,09:00 ~ 22:00
깡통커피,부산광역시 중구 중구로 25,,35.100057686192,129.027678541563,08:00 ~ 22:00,08:00 ~ 22:00,08:00 ~ 22:00,08:00 ~ 22:00,08:00 ~ 22:00,08:00 ~ 22:00,08:00 ~ 22:00
누리향,부산광역시 사상구 괘감로 133,,35.1563677019267,128.989084098931,10:00 ~ 20:00,10:00 ~ 20:00,10:00 ~ 20:00,10:00 ~ 20:00,10:00 ~ 20:00,10:00 ~ 20:00,10:00 ~ 20:00
이디야 커피숍,부산광역시 연제구 월드컵대로 19,051 867 3589,35.1763777624216,129.085538190396,09:00 ~ 22:00,09:00 ~ 22:00,09:00 ~ 22:00,09:00 ~ 22:00,09:00 ~ 22:00,09:00 ~ 22:00,09:00 ~ 22:00
오디너리레시피 센텀점,부산광역시 해운대구 센텀1로 9,,35.1678450471667,129.130962834729,09:30 ~ 18:00,09:30 ~ 18:00,09:30 ~ 18:00,09:30 ~ 18:00,09:30 ~ 18:00,09:30 ~ 18:00,
커피왕,부산광역시 해운대구 재반로 157,,35.1920293400474,129.128064500454,10:00 ~ 22:50,10:00 ~ 22:50,10:00 ~ 22:50,10:00 ~ 22:50,10:00 ~ 22:50,10:00 ~ 22:50,10:00 ~ 22:50
하삼동커피 온천천점,부산광역시 연제구 온천천공원길 4,051 507 1116,35.195435858632,129.081582560886,08:10 ~ 22:00,08:10 ~ 22:00,08:10 ~ 22:00,08:10 ~ 22:00,08:10 ~ 22:00,09:10 ~ 22:30,09:10 ~ 22:30
텐퍼센트커피 명지국제신도시점,부산광역시 강서구 명지국제8로 258,,35.0976355362652,128.920857770206,08:00 ~ 22:00,08:00 ~ 22:00,08:00 ~ 22:00,08:00 ~ 22:00,08:00 ~ 22:00,09:00 ~ 22:00,09:00 ~ 22:00
텐퍼센트 부산대역 부곡점,부산광역시 금정구 중앙대로 1616,,35.2286668580805,129.090954857822,07:30 ~ 22:00,07:30 ~ 22:00,07:30 ~ 22:00,07:30 ~ 22:00,07:30 ~ 22:00,07:30 ~ 22:00,09:00 ~ 22:00
하삼동커피 부산학장점,부산광역시 사상구 대동로 83,,35.1377744418534,128.977331604565,08:30 ~ 22:00,08:30 ~ 22:00,08:30 ~ 22:00,08:30 ~ 22:00,08:30 ~ 22:00,08:30 ~ 22:00,08:30 ~ 22:00
카페(Cafe).251,부산광역시 강서구 생곡로 273,,35.1366339246406,128.88584770433,07:00 ~ 17:30,07:00 ~ 17:30,07:00 ~ 17:30,07:00 ~ 17:30,07:00 ~ 17:30,,
텐퍼센트커피 센텀트럼프점,부산광역시 해운대구 센텀동로 9,,35.1698704966296,129.132455662366,08:00 ~ 19:00,08:00 ~ 19:00,08:00 ~ 19:00,08:00 ~ 19:00,08:00 ~ 19:00,09:00 ~ 19:00,09:00 ~ 19:00
달콩정원,부산광역시 수영구 연수로357번길 25,,35.1720379855309,129.110739384461,10:00 ~ 19:00,10:00 ~ 19:00,10:00 ~ 19:00,10:00 ~ 19:00,10:00 ~ 19:00,10:00 ~ 19:00,10:00 ~ 19:00
엔제리너스 해운대 마린시티점,부산광역시 해운대구 마린시티3로 51,,35.1540570459646,129.145834012644,08:00 ~ 23:00,08:00 ~ 23:00,08:00 ~ 23:00,08:00 ~ 23:00,08:00 ~ 23:00,08:00 ~ 23:00,08:00 ~ 23:00
cheek to cheek(칙투칙),부산광역시 동래구 온천천로441번길 17,,35.1924674102761,129.101477732669,,12:00 ~ 19:00,12:00 ~ 19:00,12:00 ~ 19:00,12:00 ~ 19:00,12:00 ~ 19:00,12:00 ~ 19:00
메가엠지씨커피 부산낙민점,부산광역시 동래구 온천천로339번길 51,,35.196597853658,129.090761438022,08:00 ~ 22:00,08:00 ~ 22:00,08:00 ~ 22:00,08:00 ~ 22:00,08:00 ~ 22:00,09:00 ~ 22:00,09:00 ~ 22:00
카페Ri(카페리),부산광역시 동래구 동래로79번길 11,,35.2088502936174,129.0814583741,10:30 ~ 20:00,10:30 ~ 20:00,10:30 ~ 20:00,10:30 ~ 20:00,10:30 ~ 20:00,10:30 ~ 20:00,10:30 ~ 19:30
고품격커피공장 서면중앙점,부산광역시 부산진구 중앙대로692번길 43,,35.154639636578,129.061583836663,09:50 ~ 24:00,09:50 ~ 24:00,09:50 ~ 24:00,09:50 ~ 24:00,10:20 ~ 01:00,10:20 ~ 01:00,10:20 ~ 24:00
로지브라운,부산광역시 영도구 영선대로 109,,35.0905894085611,129.043260914826,10:00 ~ 22:00,10:00 ~ 22:00,10:00 ~ 22:00,10:00 ~ 22:00,10:00 ~ 22:00,10:00 ~ 22:00,10:00 ~ 22:00
디스코케이크,부산광역시 부산진구 서전로37번길 14,,35.1583949981415,129.063994052309,12:00 ~ 19:00,12:00 ~ 19:00,12:00 ~ 19:00,12:00 ~ 19:00,12:00 ~ 19:00,12:00 ~ 19:00,12:00 ~ 19:00
카페브로,부산광역시 동래구 종합운동장로 29,,35.1927709858009,129.063411773396,,07:00 ~ 19:00,07:00 ~ 19:00,07:00 ~ 19:00,07:00 ~ 19:00,,
아날로그커피,부산광역시 북구 금곡대로285번길 30,,35.2342307848155,129.011826052722,08:00 ~ 22:00,08:00 ~ 22:00,08:00 ~ 22:00,08:00 ~ 22:00,08:00 ~ 22:00,08:00 ~ 22:00,08:00 ~ 22:00
담쟁이,부산광역시 사하구 괴정로15번길 39 (하단동),051 900 8935,35.1040759138426,128.968473129207,10:00 ~ 22:00,10:00 ~ 22:00,10:00 ~ 22:00,10:00 ~ 22:00,10:00 ~ 22:00,10:00 ~ 22:00,10:00 ~ 22:00
컴포즈커피 차이나타운점,부산광역시 동구 중앙대로195번길 6,051 466 4513,35.1150771028298,129.038940972078,06:30 ~ 20:30,06:30 ~ 20:30,06:30 ~ 20:30,06:30 ~ 20:30,06:30 ~ 21:00,06:30 ~ 21:00,06:30 ~ 21:00
어랏투고 명지국제신도시점,부산광역시 강서구 명지국제8로 251,051 206 5156,35.0983422332044,128.920478063773,08:00 ~ 22:00,08:00 ~ 22:00,08:00 ~ 22:00,08:00 ~ 22:00,08:00 ~ 22:00,09:00 ~ 22:00,09:00 ~ 22:00
하삼동커피 괴정점,부산광역시 사하구 낙동대로 271,,35.0988602475043,128.987048251903,09:00 ~ 22:00,09:00 ~ 22:00,09:00 ~ 22:00,09:00 ~ 22:00,09:00 ~ 22:00,09:00 ~ 22:00,09:00 ~ 22:00
4rr 사르르,부산광역시 금정구 금강로 273,051 583 0552,35.2326029446341,129.085296609419,,12:00 ~ 20:30,12:00 ~ 20:30,12:00 ~ 20:30,12:00 ~ 20:30,12:00 ~ 20:30,12:00 ~ 20:30
카페 도화,부산광역시 사상구 사상로 504,,35.1891780356115,128.988746643157,,08:00 ~ 20:00,08:00 ~ 20:00,08:00 ~ 20:00,08:00 ~ 20:00,08:00 ~ 20:00,08:00 ~ 20:00
유동커피 삼정타워점,부산광역시 부산진구 중앙대로 672,,35.153006221653,129.059606320437,11:00 ~ 22:00,11:00 ~ 22:00,11:00 ~ 22:00,11:00 ~ 22:00,11:00 ~ 22:30,11:00 ~ 22:30,11:00 ~ 22:00
동글,부산광역시 남구 전포대로 133,,35.1482823676143,129.065472544207,,17:00 ~ 22:30,12:30 ~ 22:30,12:30 ~ 22:30,12:30 ~ 22:30,12:30 ~ 22:30,12:30 ~ 22:30
텐퍼센트커피 수영구청점,부산광역시 수영구 남천동로 110,051 990 4097,35.1457417085844,129.111609498697,07:30 ~ 19:30,07:30 ~ 19:30,07:30 ~ 19:30,07:30 ~ 19:30,07:30 ~ 19:30,09:30 ~ 18:30,09:30 ~ 18:30
컴포즈커피(두실점),부산광역시 금정구 중앙대로1945번길 50,,35.2580440754276,129.088400310877,08:00 ~ 22:40,08:00 ~ 22:40,08:00 ~ 22:40,08:00 ~ 22:40,08:00 ~ 22:40,08:00 ~ 22:40,08:00 ~ 22:40
커피일과,부산광역시 해운대구 재반로103번가길 27,,35.1891205216286,129.125392870851,07:50 ~ 17:50,07:50 ~ 17:50,07:50 ~ 17:50,07:50 ~ 17:50,,,07:50 ~ 17:50
로스터리카페 미루,부산광역시 강서구 새진목길 58,051 271 0757,35.1150867263023,128.922238474681,07:30 ~ 21:00,07:30 ~ 21:00,07:30 ~ 21:00,07:30 ~ 21:00,07:30 ~ 21:00,07:30 ~ 21:00,07:30 ~ 21:00
텐퍼센트 커피,부산광역시 동구 중앙대로 365,,35.1285378707413,129.048008757422,07:30 ~ 21:00,07:30 ~ 21:00,07:30 ~ 21:00,07:30 ~ 21:00,07:30 ~ 21:00,07:30 ~ 20:00,09:30 ~ 20:00
이디야부암점,부산광역시 부산진구 신천대로185번길 23,,35.1583381416496,129.048959241372,09:00 ~ 22:00,09:00 ~ 22:00,09:00 ~ 22:00,09:00 ~ 22:00,09:00 ~ 22:00,10:00 ~ 22:00,10:00 ~ 22:00
길카페(cafe),부산광역시 중구 구덕로 지하 44,051 247 7774,35.0980089584166,129.032004281096,07:40 ~ 19:00,07:40 ~ 19:00,07:40 ~ 19:00,07:40 ~ 19:00,07:40 ~ 19:00,07:40 ~ 19:00,
베이커리카페,부산광역시 동래구 온천장로107번길 32,051 550 2528,35.2211550981779,129.082686623437,09:00 ~ 24:00,09:00 ~ 24:00,09:00 ~ 24:00,09:00 ~ 24:00,09:00 ~ 24:00,09:00 ~ 24:00,09:00 ~ 24:00
생`s카페,부산광역시 사하구 옥천로75번길 14,,35.0940235080482,129.009165542229,,11:00 ~ 17:00,11:00 ~ 17:00,11:00 ~ 17:00,11:00 ~ 17:00,11:00 ~ 17:00,11:00 ~ 17:00
하삼동커피 지사점,부산광역시 강서구 과학산단2로20번길 44,051 972 5786,35.1505249287203,128.835419285773,09:00 ~ 22:00,09:00 ~ 22:00,09:00 ~ 22:00,09:00 ~ 22:00,09:00 ~ 22:00,09:00 ~ 22:00,09:00 ~ 22:00
메가엠지씨커피 용호점,부산광역시 남구 용호로 138,051 621 1309,35.1200353174363,129.111942392819,08:45 ~ 21:40,08:45 ~ 21:40,08:45 ~ 21:40,08:45 ~ 21:40,08:45 ~ 21:40,09:30 ~ 21:40,09:00 ~ 21:40
더벤티 엄궁사거리점,부산광역시 사상구 낙동대로 790,,35.1310279277785,128.972450403298,08:00 ~ 21:00,08:00 ~ 21:00,08:00 ~ 21:00,08:00 ~ 21:00,08:00 ~ 21:00,08:00 ~ 21:00,08:00 ~ 21:00
카페051 개금점,부산광역시 부산진구 엄광로 24,,35.1480415563643,129.018813022188,07:40 ~ 21:30,07:40 ~ 21:30,07:40 ~ 21:30,07:40 ~ 21:30,07:40 ~ 21:30,07:40 ~ 21:30,07:40 ~ 21:30
요거스빈 부경대후문점,부산광역시 남구 황령대로492번길 18,,35.1378438455416,129.10661837085,10:00 ~ 20:00,10:00 ~ 20:00,10:00 ~ 20:00,10:00 ~ 20:00,10:00 ~ 20:00,10:00 ~ 20:00,10:00 ~ 20:00
투썸플레이스 부산시청점,부산광역시 연제구 시청로 6,051 868 9071,35.180766388917,129.076410134254,08:30 ~ 22:00,08:30 ~ 22:00,08:30 ~ 22:00,08:30 ~ 22:00,08:30 ~ 22:00,08:30 ~ 22:00,08:30 ~ 22:00
애코랜드,부산광역시 해운대구 달맞이길62번길 53,051 731 3359,35.1575891788629,129.172891591169,08:30 ~ 17:30,08:30 ~ 17:30,08:30 ~ 17:30,08:30 ~ 17:30,08:30 ~ 17:30,08:30 ~ 17:30,08:30 ~ 17:30
그루비(Groovy),부산광역시 부산진구 서면로 29,,35.1533255490748,129.057525330791,10:30 ~ 24:00,10:30 ~ 24:00,,10:30 ~ 24:00,10:30 ~ 24:00,10:30 ~ 24:00,10:30 ~ 24:00
더웨이닝커피 연산토곡점,부산광역시 연제구 과정로 192,,35.1880688473857,129.106219994715,08:00 ~ 23:00,08:00 ~ 23:00,08:00 ~ 23:00,08:00 ~ 23:00,08:00 ~ 23:00,08:00 ~ 23:00,08:00 ~ 23:00
폴(Paul),부산광역시 해운대구 세실로 7,,35.1653958910219,129.179717596926,08:00 ~ 21:00,08:00 ~ 21:00,08:00 ~ 21:00,08:00 ~ 21:00,08:00 ~ 21:00,08:00 ~ 22:00,08:00 ~ 22:00
어벤더치 고신대점,부산광역시 서구 감천로 253,,35.081640851888,129.0156838843,09:00 ~ 17:50,09:00 ~ 17:50,09:00 ~ 17:50,09:00 ~ 17:50,09:00 ~ 17:50,10:00 ~ 16:50,10:00 ~ 16:50
공차 경성대점,부산광역시 남구 용소로 9,,35.1365571707623,129.100677062772,07:00 ~ 22:30,07:00 ~ 22:30,07:00 ~ 22:30,07:00 ~ 22:30,07:00 ~ 22:30,07:00 ~ 22:30,07:00 ~ 22:30
카페051 일동미라주점,부산광역시 연제구 반송로 80,,35.1906164745463,129.087915053233,08:00 ~ 22:00,08:00 ~ 22:00,08:00 ~ 22:00,08:00 ~ 22:00,08:00 ~ 22:00,08:00 ~ 22:00,08:00 ~ 22:00
텐퍼센트 사직점,부산광역시 동래구 사직북로 20,,35.1976001538894,129.060631587849,08:00 ~ 21:00,08:00 ~ 21:00,08:00 ~ 21:00,08:00 ~ 21:00,08:00 ~ 21:00,10:00 ~ 21:00,10:00 ~ 21:00
카페051 문현BIFC점,부산광역시 남구 문현금융로 40,,35.1464917263976,129.065854840531,07:30 ~ 19:00,07:30 ~ 19:00,07:30 ~ 19:00,07:30 ~ 19:00,07:30 ~ 19:00,10:00 ~ 16:00,10:00 ~ 16:00
컴포즈커피 동래시장점,부산광역시 동래구 명륜로112번길 42-1,,35.2032045602995,129.08520798149,09:00 ~ 21:00,09:00 ~ 21:00,09:00 ~ 21:00,09:00 ~ 21:00,09:00 ~ 21:00,09:00 ~ 21:00,09:00 ~ 21:00
하이오커피 명지국제신도시점,부산광역시 강서구 명지국제8로 243,070 86913906,35.0984381353721,128.919521392003,08:00 ~ 21:30,08:00 ~ 18:00,08:00 ~ 21:30,08:00 ~ 21:30,08:00 ~ 21:30,09:30 ~ 21:30,09:30 ~ 21:30
아워리프,부산광역시 해운대구 우동1로38번길 15-1,,35.165694000897,129.15835666318,10:30 ~ 21:00,10:30 ~ 21:00,10:30 ~ 21:00,10:30 ~ 21:00,10:30 ~ 21:00,10:30 ~ 21:00,10:30 ~ 21:00
이디야초읍점,부산광역시 부산진구 성지로 104,,35.1797031199073,129.052553938141,10:30 ~ 21:00,10:30 ~ 21:00,10:30 ~ 21:00,10:30 ~ 21:00,10:30 ~ 21:00,10:30 ~ 21:00,10:30 ~ 21:00
메가엠지씨커피 당감점,부산광역시 부산진구 동평로 92,,35.1653329814353,129.039595746218,08:00 ~ 22:00,08:00 ~ 22:00,08:00 ~ 22:00,08:00 ~ 22:00,08:00 ~ 22:00,08:00 ~ 22:00,09:00 ~ 22:00
텐퍼센트커피서면서전로점,부산광역시 부산진구 서전로9번길 8,,35.1581507739397,129.060777271264,07:30 ~ 18:00,07:30 ~ 18:00,07:30 ~ 18:00,07:30 ~ 18:00,07:30 ~ 18:00,08:30 ~ 17:00,
업투유,부산광역시 기장군 기장읍 기장대로 82-8,,35.2040536747351,129.207169705909,09:00 ~ 18:00,09:00 ~ 18:00,09:00 ~ 18:00,09:00 ~ 18:00,09:00 ~ 18:00,10:00 ~ 18:00,10:00 ~ 18:00
퍼스트커피랩명장점,부산광역시 동래구 명서로 164,,35.2084281376047,129.102368228243,09:30 ~ 22:30,09:30 ~ 22:30,09:30 ~ 22:30,09:30 ~ 22:30,09:30 ~ 22:30,09:30 ~ 22:30,
더블스윗,부산광역시 남구 수영로322번길 45,051 6239432,35.1359693952082,129.102502612938,10:00 ~ 21:00,10:00 ~ 21:00,10:00 ~ 21:00,10:00 ~ 21:00,10:00 ~ 21:00,10:00 ~ 21:00,10:00 ~ 21:00
카페051덕천점,부산광역시 북구 백양대로 1202,,35.2097060777821,129.005941297462,08:00 ~ 22:00,08:00 ~ 22:00,08:00 ~ 22:00,08:00 ~ 22:00,08:00 ~ 22:00,08:30 ~ 22:00,08:30 ~ 22:00
파머스커피,부산광역시 남구 황령대로74번길 70,,35.1468399054141,129.067382981335,11:00 ~ 19:00,11:00 ~ 19:00,11:00 ~ 19:00,11:00 ~ 19:00,11:00 ~ 19:00,12:00 ~ 19:00,12:00 ~ 19:00
